Centre Code,Centre Name,Centre Type,Centre Status,Host Centre Code,Host Centre Name,Official Low Year Level,Official High Year Level,Officer In Charge Title,School Level Code,Show Holiday Date,Internet Site,Phone Number,Restrict Contact Outside Teaching Hours,Fax Number,Actual Address Line 1,Actual Address Line 2,Actual Address Line 3,Actual Address Post Code,Postal Address Line 1,Postal Address Line 2,Postal Address Line 3,Postal Address Post Code,Education Geographic Region,Federal Electorate,State Electorate,Local Government Area,Statistical Area Level2,Statistical Area Level2 Code,Remoteness Area,Enrolment Effective Date,All Student Count,Campus All Student Count,Early Childhood Registrations,Campus Early Childhood Registrations,ABN,Sector,Non-State Sector,Longitude,Latitude
5817,A B Paterson College (Arundel),Non-State School,Open,,,Prep Year,Year 12,Principal,,,www.abpat.qld.edu.au,(07) 5594 7947,N,(07) 5594 7650,,10 A B Paterson Drive,Arundel,4214,10 A B Paterson Drive,Arundel,,4214,South East,Fadden,Bonney,Gold Coast (C),Arundel,309031235,Major Cities of Australia,,,,0.00,,,Non-State,Independent,153.360364,-27.927672
5588,Aboriginal & Islander Independent Community School (Acacia Ridge),Non-State School,Open,,,Prep Year,Year 12,Principal,,,www.murrischool.qld.edu.au,(07) 3255 6133,,(07) 3255 6562,,1277 Beaudesert Road,Acacia Ridge,4110,PO Box 256,Acacia Ridge,,4110,Metropolitan,Moreton,Algester,Brisbane (C),Rocklea - Acacia Ridge,303051076,Major Cities of Australia,,,,0.00,,,Non-State,Independent,153.025757,-27.581562
5636,Albert Park Flexible Learning Centre (Milton),Non-State School,Open,,,Year 9,Year 12,Principal,,,www.ereafsn.edu.au,(07) 3071 9010,,(07) 3327 2217,,1 Hale Street,Milton,4064,1 Hale Street,Milton,,4064,Metropolitan,Brisbane,McConnel,Brisbane (C),Brisbane City,305011105,Major Cities of Australia,,,,0.00,,,Non-State,Catholic,153.010813,-27.465900
5369,All Hallows' School (Brisbane),Non-State School,Open,,,Year 5,Year 12,Principal,,,www.ahs.qld.edu.au,(07) 3831 3100,,(07) 3832 6140,,547 Ann Street,Brisbane,4000,547 Ann Street,Brisbane,,4000,Metropolitan,Brisbane,McConnel,Brisbane (C),Fortitude Valley,305011106,Major Cities of Australia,,,,0.00,,,Non-State,Catholic,153.032816,-27.460894
5452,All Saints Anglican School (Merrimac),Non-State School,Open,,,Prep Year,Year 12,Headmaster,,,www.asas.qld.edu.au,(07) 5530 2855,,(07) 5530 3314,,Highfield Drive,Merrimac,4226,Highfield Drive,Merrimac,,4226,South East,Mcpherson,Mudgeeraba,Gold Coast (C),Merrimac,309081260,Major Cities of Australia,,,,0.00,,,Non-State,Independent,153.361156,-28.060893
5600,All Saints Primary School (Albany Creek),Non-State School,Open,,,Prep Year,Year 6,Principal,,,www.allsaints.qld.edu.au,(07) 3325 6900,,(07) 3264 5877,,4 Faheys Road East,Albany Creek,4035,4 Faheys Road East,Albany Creek,,4035,Metropolitan,Dickson,Everton,Moreton Bay (R),Albany Creek,314011382,Major Cities of Australia,,,,0.00,,,Non-State,Catholic,152.970693,-27.350094
5111,All Saints' School (Boonah),Non-State School,Open,,,Prep Year,Year 6,Principal,,,www.allsaintsboonah.qld.edu.au,(07) 5463 1322,N,(07) 5463 2597,,15 Oliver Street,Boonah,4310,15 Oliver Street,Boonah,,4310,South East,Wright,Scenic Rim,Scenic Rim (R),Boonah,310021277,Inner Regional Australia,,,,0.00,,,Non-State,Catholic,152.686423,-28.000349
5451,All Souls St Gabriels School (Charters Towers),Non-State School,Open,,,Prep Year,Year 12,Headmaster,,,www.allsouls.qld.edu.au,(07) 4787 1433,,(07) 4787 3049,,30 Dr George Ellis Drive,Charters Towers,4820,PO Box 235,Charters Towers,,4820,North Queensland,Kennedy,Traeger,Charters Towers (R),Charters Towers,318011462,Outer Regional Australia,,,,0.00,,,Non-State,Independent,146.276724,-20.062721
9628,Alta-1 College (Parish Rd - Caboolture),Non-State School,Open,,,Year 11,Year 12,Principal,,,www.alta-1.qld.edu.au,(07) 5301 8008,,,Destiny Church,94 Parish Road,Caboolture,4510,PO Box 388,Caboolture,,4510,North Coast,Longman,Morayfield,Moreton Bay (R),Caboolture,313021365,Major Cities of Australia,,,,0.00,,,Non-State,Independent,152.941507,-27.071032
5077,Ambrose Treacy College (Indooroopilly),Non-State School,Open,,,Year 4,Year 12,Principal,,,www.atc.qld.edu.au,(07) 3878 0500,,(07) 3878 0501,,Twigg Street,Indooroopilly,4068,Twigg Street,Indooroopilly,,4068,Metropolitan,Ryan,Maiwar,Brisbane (C),Indooroopilly,304031094,Major Cities of Australia,,,,0.00,,,Non-State,Catholic,152.966903,-27.507571
A057,Angelorum College (Fortitude Valley),Non-State School,Open,,,Prep Year,Year 10,Principal,,,www.angelorum.qld.edu.au,(07) 3257 2830,,,,377 St Pauls Terrace,Fortitude Valley,4006,377 St Pauls Terrace,Fortitude Valley,,4006,Metropolitan,Brisbane,McConnel,Brisbane (C),Fortitude Valley,305011106,Major Cities of Australia,,,,0.00,,,Non-State,Independent,153.032768,-27.455604
5446,Anglican Church Grammar School (East Brisbane),Non-State School,Open,,,Prep Year,Year 12,Headmaster,,,www.churchie.com.au,(07) 3896 2200,,(07) 3891 5976,,Oaklands Parade,East Brisbane,4169,Oaklands Parade,East Brisbane,,4169,Metropolitan,Griffith,South Brisbane,Brisbane (C),East Brisbane,305021115,Major Cities of Australia,,,,0.00,,,Non-State,Independent,153.051077,-27.481660
5573,Annandale Christian College (Annandale),Non-State School,Open,,,Prep Year,Year 12,Principal,,,www.acc.qld.edu.au,(07) 4725 2082,,(07) 4725 4178,,104-156 Yolanda Drive,Annandale,4814,PO Box 1366,Aitkenvale,,4814,North Queensland,Dawson,Mundingburra,Townsville (C),Annandale,318021468,Outer Regional Australia,,,,0.00,,,Non-State,Independent,146.780260,-19.312706
5316,Aquinas College (Ashmore),Non-State School,Open,,,Year 7,Year 12,Principal,,,www.aquinas.qld.edu.au,(07) 5510 2888,,(07) 5510 2899,,Edmund Rice Drive,Ashmore,4214,PO Box 34,Ashmore City,,4214,South East,Moncrieff,Southport,Gold Coast (C),Southport - North,309091540,Major Cities of Australia,,,,0.00,,,Non-State,Catholic,153.382676,-27.975910
A624,Arcadia College (Robina),Non-State School,Open,,,Year 7,Year 12,Principal,,,www.arcadia.qld.edu.au,(07) 5655 1800,,,,12 Centreline Place,Robina,4226,12 Centreline Place,Robina,,4226,South East,Mcpherson,Mudgeeraba,Gold Coast (C),Robina,309081261,Major Cities of Australia,,,,,,,Non-State,Independent,153.378410,-28.068780
A740,Arethusa College (Deception Bay),Non-State School,Open,,,Year 7,Year 12,Executive Principal,,,www.arethusa.qld.edu.au,1300 720 371,,(07) 3888 5143,,1-83 Deception Bay Road,Deception Bay,4508,PO Box 565,Burpengary,,4505,North Coast,Petrie,Bancroft,Moreton Bay (R),Deception Bay,313041373,Major Cities of Australia,,,,0.00,,,Non-State,Independent,152.986860,-27.178469
5313,Assisi Catholic College (Upper Coomera),Non-State School,Open,,,Prep Year,Year 12,Principal,,,www.assisi.qld.edu.au,(07) 5656 7100,,(07) 5529 4711,,173 Billinghurst Crescent,Upper Coomera,4209,173 Billinghurst Crescent,Upper Coomera,,4209,South East,Forde,Coomera,Gold Coast (C),Upper Coomera - Willow Vale,309071258,Major Cities of Australia,,,,0.00,,,Non-State,Catholic,153.302142,-27.858338
5393,Assumption College (Warwick),Non-State School,Open,,,Year 7,Year 12,Principal,,,www.acwarwick.catholic.edu.au,(07) 4660 4000,,(07) 4660 4099,,6 Locke Street,Warwick,4370,PO Box 347,Warwick,,4370,Darling Downs South West,Maranoa,Southern Downs,Southern Downs (R),Warwick,307031189,Inner Regional Australia,,,,0.00,,,Non-State,Catholic,152.027987,-28.225162
1677,Australian Christian College - Moreton (Caboolture),Non-State School,Open,,,Prep Year,Year 12,Principal,,,www.acc.edu.au,(07) 5490 6100,,(07) 5490 6191,,34 Cottrill Road,Caboolture,4510,Locked Bag 6000,Caboolture BC,,4510,North Coast,Longman,Pumicestone,Moreton Bay (R),Caboolture,313021365,Major Cities of Australia,,,,0.00,,,Non-State,Independent,152.952590,-27.057676
A818,Australian Industry Trade College - Ipswich (North Ipswich),Non-State School,Open,,,Year 10,Year 12,Principal,,,www.aitc.qld.edu.au,(07) 3050 4800,,,,17 Lowry Street,North Ipswich,4305,17 Lowry Street,North Ipswich,,4305,Metropolitan,Blair,Ipswich West,Ipswich (C),North Ipswich - Tivoli,310031292,Major Cities of Australia,,,,0.00,,,Non-State,Independent,152.761570,-27.607500
9979,Australian Industry Trade College - Redlands (Cleveland),Non-State School,Open,,,Year 10,Year 12,Principal,,,www.aitc.qld.edu.au,(07) 3086 0500,,,,233 Middle Street,Cleveland,4163,PO Box 325,Cleveland,,4163,South East,Bowman,Oodgeroo,Redland (C),Cleveland,301021007,Major Cities of Australia,,,,0.00,,,Non-State,Independent,153.281938,-27.526604
A798,Australian Industry Trade College - Toowoomba (Toowoomba City),Non-State School,Open,,,Year 10,Year 12,Principal,,,www.aitc.qld.edu.au/education/toowoomba-campus/,(07) 4592 8700,,,,1-3 Russell Street,Toowoomba City,4350,PO Box 3254,Toowoomba City,,4350,Darling Downs South West,Groom,Toowoomba North,Toowoomba (R),Toowoomba - Central,317011456,Inner Regional Australia,,,,0.00,,,Non-State,Independent,151.955617,-27.559244
5740,Australian Industry Trade College (Robina),Non-State School,Open,,,Year 10,Year 12,Principal,,,www.aitc.qld.edu.au,(07) 5635 0400,,(07) 5635 0444,,281 Scottsdale Drive,Robina,4226,PO Box 4777,Robina Town Centre,,4230,South East,Mcpherson,Mermaid Beach,Gold Coast (C),Robina,309081261,Major Cities of Australia,,,,0.00,,,Non-State,Independent,153.392610,-28.091614
B054,Australian Industry Trade College (Spring Hill),Non-State School,Open,,,Year 10,Year 10,Principal,,,,,,,,88 Leichhardt Street,Spring Hill,4000,88 Leichhardt Street,Spring Hill,,4000,Metropolitan,Brisbane,McConnel,Brisbane (C),Spring Hill,305011111,Major Cities of Australia,,,,,,,Non-State,Independent,153.023402,-27.462193
5396,Australian International Islamic College (Durack),Non-State School,Open,,,Prep Year,Year 12,Principal,,,www.aiic.qld.edu.au,(07) 3372 1400,,(07) 3372 2500,,724 Blunder Road,Durack,4077,724 Blunder Road,Durack,,4077,Metropolitan,Oxley,Inala,Brisbane (C),Durack,310011272,Major Cities of Australia,,,,0.00,,,Non-State,Independent,152.987738,-27.597667
9977,Australian Technology and Agricultural College (North Maclean),Non-State School,Open,,,Year 10,Year 12,Chief Executive Officer,,,www.atac.qld.edu.au,(07) 5547 8598,,,,Cnr Mt Lindesay Highway and Trace Road,North Maclean,4280,PO Box 319,Browns Plains BC,,4118,South East,Forde,Logan,Logan (C),Greenbank,311041320,Major Cities of Australia,,,,0.00,,,Non-State,Independent,153.012871,-27.777759
5690,Australian Trade College North Brisbane (Scarborough),Non-State School,Open,,,Year 11,Year 12,Principal,,,www.tradecollege.com.au,(07) 3880 4331,,(07) 3880 4339,,294 Scarborough Road,Scarborough,4020,PO Box 140,Scarborough,,4020,North Coast,Petrie,Redcliffe,Moreton Bay (R),Scarborough - Newport - Moreton Island,313051542,Major Cities of Australia,,,,0.00,,,Non-State,Independent,153.110018,-27.205235
5893,Autism Queensland Education & Therapy Centre (Sunnybank Hills),Non-State School,Open,,,Prep Year,Year 12,Principal,,,www.autismqld.com.au,(07) 3273 0000,,(07) 3273 8306,,437 Hellawell Road,Sunnybank Hills,4109,PO Box 354,Sunnybank,,4109,Metropolitan,Moreton,Stretton,Brisbane (C),Sunnybank Hills,303061080,Major Cities of Australia,,,,0.00,,,Non-State,Independent,153.043103,-27.597484
5579,Bayside Christian College Hervey Bay (Urraween),Non-State School,Open,,,Prep Year,Year 12,Principal,,,,(07) 4124 4417,,(07) 4124 0010,,171 Pantlins Lane,Urraween,4655,PO Box 692,Hervey Bay,,4655,North Coast,Hinkler,Hervey Bay,Fraser Coast (R),Pialba - Eli Waters,319041518,Inner Regional Australia,,,,0.00,,,Non-State,Independent,152.815309,-25.298656
5491,Bethania Lutheran Primary School (Bethania),Non-State School,Open,,,Prep Year,Year 6,Principal,,,www.bethania.qld.edu.au,(07) 3200 5363,N,(07) 3299 6639,,66 Glastonbury Drive,Bethania,4205,66 Glastonbury Drive,Bethania,,4205,South East,Forde,Waterford,Logan (C),Bethania - Waterford,311051323,Major Cities of Australia,,,,0.00,,,Non-State,Independent,153.157835,-27.694340
5761,Bethany Lutheran Primary School (Raceview),Non-State School,Open,,,Prep Year,Year 6,Principal,,,www.bethany.qld.edu.au,(07) 3288 8799,N,(07) 3288 6935,,126 Cascade Street,Raceview,4305,126 Cascade Street,Raceview,,4305,Metropolitan,Blair,Ipswich,Ipswich (C),Raceview,310031293,Major Cities of Australia,,,,0.00,,,Non-State,Independent,152.776463,-27.637352
A737,Birali Steiner School (Beachmere),Non-State School,Open,,,Prep Year,Year 10,Principal,,,www.biralisteiner.qld.edu.au,(07) 5429 0511,,,,670 Beachmere Road,Beachmere,4510,PO Box 137,Beachmere,,4510,North Coast,Longman,Pumicestone,Moreton Bay (R),Beachmere - Sandstone Point,313011362,Major Cities of Australia,,,,0.00,,,Non-State,Independent,153.036344,-27.116540
5500,Blackall Range Independent School (Kureelpa),Non-State School,Open,,,Prep Year,Year 12,Principal,,,www.brischool.com.au,(07) 5476 4301,,,,551 Mapleton Road,Kureelpa,4560,PO Box 4770,SCMC Nambour,,4560,North Coast,Fairfax,Nicklin,Sunshine Coast (R),Maroochy Hinterland,316061443,Inner Regional Australia,,,,0.00,,,Non-State,Independent,152.901288,-26.617844
5800,Blackheath and Thornburgh College (Charters Towers),Non-State School,Open,,,Prep Year,Year 12,Principal,,,www.btc.qld.edu.au,(07) 4787 5100,,(07) 4787 4097,,55 King Street,Charters Towers,4820,PO Box 339,Charters Towers,,4820,North Queensland,Kennedy,Traeger,Charters Towers (R),Charters Towers,318011462,Outer Regional Australia,,,,0.00,,,Non-State,Independent,146.256862,-20.070551
A015,Border Rivers Christian College (Goondiwindi),Non-State School,Open,,,Prep Year,Year 12,Principal,,,www.brcc.qld.edu.au,(07) 4671 4123,,,,194 Marshall Street,Goondiwindi,4390,PO Box 1201,Goondiwindi,,4390,Darling Downs South West,Maranoa,Southern Downs,Goondiwindi (R),Goondiwindi,307011173,Outer Regional Australia,,,,0.00,,,Non-State,Independent,150.316711,-28.551400
5345,Brigidine College (Indooroopilly),Non-State School,Open,,,Year 7,Year 12,Principal,,,www.brigidine.qld.edu.au,(07) 3870 7225,N,(07) 3371 8936,,53 Ward Street,Indooroopilly,4068,PO Box 475,Indooroopilly,,4068,Metropolitan,Ryan,Maiwar,Brisbane (C),Indooroopilly,304031094,Major Cities of Australia,,,,0.00,,,Non-State,Catholic,152.980432,-27.500574
2073,Brisbane Adventist College (Mansfield),Non-State School,Open,,,Prep Year,Year 12,Principal,,,www.bac.qld.edu.au,(07) 3347 6444,N,(07) 3347 6475,,303A Broadwater Road,Mansfield,4122,303A Broadwater Road,Mansfield,,4122,Metropolitan,Bonner,Mansfield,Brisbane (C),Wishart,303031066,Major Cities of Australia,,,,0.00,,,Non-State,Independent,153.097610,-27.544597
5465,Brisbane Boys' College (Toowong),Non-State School,Open,,,Prep Year,Year 12,Headmaster,,,www.bbc.qld.edu.au,(07) 3309 3500,,(07) 3309 3671,,Kensington Terrace,Toowong,4066,Kensington Terrace,Toowong,,4066,Metropolitan,Ryan,Maiwar,Brisbane (C),Toowong,305041137,Major Cities of Australia,,,,0.00,,,Non-State,Independent,152.987731,-27.487004
5883,Brisbane Christian College (Golda Ave - Salisbury),Non-State School,Open,,,Prep Year,Year 5,Principal,,,www.brisbanechristiancollege.com.au,(07) 3719 3111,,(07) 3274 1071,,109 Golda Avenue,Salisbury,4107,PO Box 177,Salisbury,,4107,Metropolitan,Moreton,Toohey,Brisbane (C),Salisbury - Nathan,303041070,Major Cities of Australia,,,,0.00,,,Non-State,Independent,153.039059,-27.557803
5510,Brisbane Girls Grammar School (Brisbane),Non-State School,Open,,,Year 7,Year 12,Principal,,,www.bggs.qld.edu.au,(07) 3332 1300,N,(07) 3832 6097,,Gregory Terrace,Brisbane,4000,Gregory Terrace,Brisbane,,4000,Metropolitan,Brisbane,McConnel,Brisbane (C),Spring Hill,305011111,Major Cities of Australia,,,,0.00,,,Non-State,Independent,153.019826,-27.459069
5509,Brisbane Grammar School (Brisbane),Non-State School,Open,,,Year 5,Year 12,Headmaster,,,www.brisbanegrammar.com,(07) 3834 5200,,(07) 3834 5202,,24 Gregory Terrace,Brisbane,4000,Gregory Terrace,Brisbane,,4000,Metropolitan,Brisbane,McConnel,Brisbane (C),Spring Hill,305011111,Major Cities of Australia,,,,0.00,,,Non-State,Independent,153.018621,-27.459894
5503,Brisbane Independent School (Pullenvale),Non-State School,Open,,,Prep Year,Year 6,Principal,,,www.bis.qld.edu.au,0465 265 569,,,,2447 Moggill Road,Pullenvale,4069,PO Box 17,Kenmore,,4069,Metropolitan,Ryan,Moggill,Brisbane (C),Pinjarra Hills - Pullenvale,304021091,Major Cities of Australia,,,,0.00,,,Non-State,Independent,152.918721,-27.524134
5791,Brisbane Montessori School (Fig Tree Pocket),Non-State School,Open,,,Prep Year,Year 10,Principal,,,www.bms.qld.edu.au,(07) 3327 0600,,(07) 3878 3953,,Mactier Street,Fig Tree Pocket,4069,PO Box 681,Kenmore,,4069,Metropolitan,Ryan,Maiwar,Brisbane (C),Fig Tree Pocket,304021089,Major Cities of Australia,,,,0.00,,,Non-State,Independent,152.961248,-27.532449
0384,Bundaberg Christian College (Bundaberg),Non-State School,Open,,,Prep Year,Year 12,Principal,,,www.bcc.net.au,(07) 4132 5800,N,(07) 4159 3618,,234 Ashfield Road,Bundaberg,4670,234 Ashfield Road,Bundaberg,,4670,North Coast,Hinkler,Bundaberg,Bundaberg (R),Ashfield - Kepnock,319011492,Inner Regional Australia,,,,0.00,,,Non-State,Independent,152.407598,-24.867733
5422,Burdekin Catholic High School (Ayr),Non-State School,Open,,,Year 7,Year 12,Principal,,,www.bchs.catholic.edu.au,(07) 4783 2366,,(07) 4783 1579,,45 Gibson Street,Ayr,4807,45 Gibson Street,Ayr,,4807,North Queensland,Dawson,Burdekin,Burdekin (S),Ayr,318011460,Outer Regional Australia,,,,0.00,,,Non-State,Catholic,147.414525,-19.564642
5880,"Burdekin Christian College (Melbourne St, Ayr)",Non-State School,Open,,,Prep Year,Year 12,Principal,,,www.burdekincc.qld.edu.au,(07) 4783 5552,,(07) 4783 5926,,2-12 Melbourne Street,Ayr,4807,2-12 Melbourne Street,Ayr,,4807,North Queensland,Dawson,Burdekin,Burdekin (S),Ayr,318011460,Outer Regional Australia,,,,0.00,,,Non-State,Independent,147.417066,-19.572959
5680,Burnett Youth Learning Centre (Elliott),Non-State School,Open,,,Year 7,Year 12,Principal,,,www.bylc.qld.edu.au,(07) 4159 7579,,(07) 4159 7557,,3693 Goodwood Road,Elliott,4670,PO Box 4170,Bundaberg South,,4670,North Coast,Hinkler,Burnett,Bundaberg (R),Bundaberg Region - South,319011499,Inner Regional Australia,,,,0.00,,,Non-State,Independent,152.376329,-25.007559
1693,Caboolture Montessori School (Caboolture),Non-State School,Open,,,Prep Year,Year 6,Principal,,,www.cms.qld.edu.au,(07) 5495 5877,,(07) 5499 3927,,200 Old Gympie Road,Caboolture,4510,PO Box 1610,Caboolture,,4510,North Coast,Longman,Pumicestone,Moreton Bay (R),Caboolture,313021365,Major Cities of Australia,,,,0.00,,,Non-State,Independent,152.939291,-27.055475
5486,Cairns Adventist College (Gordonvale),Non-State School,Open,,,Prep Year,Year 6,Principal,,,www.cas.qld.edu.au,(07) 4056 6144,,(07) 4051 2585,,42 Crossland Road,Gordonvale,4865,PO Box 131,Gordonvale,,4865,Far North Queensland,Kennedy,Mulgrave,Cairns (R),Gordonvale - Trinity,306021148,Outer Regional Australia,,,,0.00,,,Non-State,Independent,145.792313,-17.076055
2419,Cairns Hinterland Steiner School (Kuranda),Non-State School,Open,,,Prep Year,Year 10,Director,,,www.chss.qld.edu.au,(07) 4093 8809,,,,46 Boyles Road,Kuranda,4881,PO Box 283,Kuranda,,4881,Far North Queensland,Leichhardt,Barron River,Mareeba (S),Kuranda,306051168,Outer Regional Australia,,,,0.00,,,Non-State,Independent,145.588513,-16.812431
5585,Caloundra Christian College (Caloundra),Non-State School,Open,,,Prep Year,Year 12,Principal,,,www.calcc.qld.edu.au,(07) 5436 6777,N,(07) 5491 5103,,7 Gregson Place,Caloundra,4551,7 Gregson Place,Caloundra,,4551,North Coast,Fisher,Caloundra,Sunshine Coast (R),Caloundra - Kings Beach,316021419,Major Cities of Australia,,,,0.00,,,Non-State,Independent,153.118457,-26.799765
5301,Caloundra City Private School (Pelican Waters),Non-State School,Open,,,Prep Year,Year 12,Principal,,,www.ccps.qld.edu.au,(07) 5437 5800,,(07) 5492 3038,,200 Pelican Waters Boulevard,Pelican Waters,4551,PO Box 542,Golden Beach,,4551,North Coast,Fisher,Caloundra,Sunshine Coast (R),Golden Beach - Pelican Waters,316021421,Major Cities of Australia,,,,0.00,,,Non-State,Independent,153.103956,-26.824051
5884,Calvary Christian College (Mount Louisa),Non-State School,Open,,,Prep Year,Year 12,Principal,,,www.calvary.qld.edu.au,(07) 4722 9201,,(07) 4722 9208,,569 Bayswater Road,Mount Louisa,4814,PO Box 1544,Aitkenvale,,4814,North Queensland,Herbert,Townsville,Townsville (C),Mount Louisa,318021484,Outer Regional Australia,,,,0.00,,,Non-State,Independent,146.738237,-19.270303
5540,Calvary Christian College (Springwood),Non-State School,Open,,,Prep Year,Year 6,Principal,,,www.calvarycc.qld.edu.au,(07) 3808 8368,N,(07) 3808 9907,,161 Dennis Road,Springwood,4127,PO Box 4157,Loganholme,,4129,South East,Rankin,Springwood,Logan (C),Springwood,311061334,Major Cities of Australia,,,,0.00,,,Non-State,Independent,153.142904,-27.615546
5797,Cannon Hill Anglican College (Cannon Hill),Non-State School,Open,,,Prep Year,Year 12,Principal,,,www.chac.qld.edu.au,(07) 3896 0444,,(07) 3896 0448,,Cnr Junction and Krupp Roads,Cannon Hill,4170,PO Box 3366,Tingalpa DC,,4173,Metropolitan,Griffith,Bulimba,Brisbane (C),Cannon Hill,303011048,Major Cities of Australia,,,,0.00,,,Non-State,Independent,153.084099,-27.460332
5445,Canterbury College (Waterford),Non-State School,Open,,,Prep Year,Year 12,Principal,,,www.canterbury.qld.edu.au,(07) 3299 0888,,(07) 3805 2132,,Old Logan Village Road,Waterford,4133,PO Box 616,Beenleigh,,4207,South East,Forde,Waterford,Logan (C),Bethania - Waterford,311051323,Major Cities of Australia,,,,0.00,,,Non-State,Independent,153.149369,-27.709900
A759,Carbrook Animal Assisted Learning Centre (Carbrook),Non-State School,Open,,,Year 9,Year 12,Principal,,,www.carbrookcentre.qld.edu.au,(07) 3557 2117,,,,597-605 Beenleigh Redland Bay Road,Carbrook,4130,PO Box 23,Narangba,,4504,South East,Forde,Macalister,Logan (C),Cornubia - Carbrook,311051324,Major Cities of Australia,,,,0.00,,,Non-State,Independent,153.242330,-27.678550
2416,Carinity Education - Glendyne (Nikenbah),Non-State School,Open,,,Year 6,Year 12,Principal,,,www.glendyne.qld.edu.au,(07) 4128 6199,,(07) 4128 6194,,72 Nikenbah-Dundowran Road,Nikenbah,4655,72 Nikenbah-Dundowran Road,Nikenbah,,4655,North Coast,Hinkler,Maryborough,Fraser Coast (R),Booral - River Heads,319041516,Inner Regional Australia,,,,0.00,,,Non-State,Independent,152.797200,-25.313559
9964,Carinity Education - Rockhampton (Glenlee),Non-State School,Open,,,Year 7,Year 12,Principal,,,www.carinity.org.au,(07) 3550 3703,,,,46 Dawson Road,Glenlee,4711,PO Box 6164,Mitchelton,,4053,Central Queensland,Capricornia,Mirani,Livingstone (S),Glenlee - Rockyview,308031209,Inner Regional Australia,,,,0.00,,,Non-State,Independent,150.493675,-23.252762
A683,Carinity Education - Shalom (Condon),Non-State School,Open,,,Prep Year,Year 12,Head of School,,,www.shalomcollege.qld.edu.au,(07) 4445 2100,,,,190 Hervey Range Road,Condon,4815,PO Box 366,Thuringowa Central,,4817,North Queensland,Herbert,Thuringowa,Townsville (C),Condon - Rasmussen,318021471,Outer Regional Australia,,,,0.00,,,Non-State,Independent,146.711001,-19.319738
2225,Carinity Education - Southside (Sunnybank),Non-State School,Open,,,Year 7,Year 12,Principal,,,www.southside.qld.edu.au,(07) 3423 7499,,(07) 3423 7599,,153 Lister Street,Sunnybank,4109,PO Box 234,Coopers Plains,,4108,Metropolitan,Moreton,Toohey,Brisbane (C),Sunnybank,303061079,Major Cities of Australia,,,,0.00,,,Non-State,Independent,153.054784,-27.577888
5489,Carlisle Adventist College (Beaconsfield),Non-State School,Open,,,Prep Year,Year 12,Principal,,,www.carlisle.adventist.edu.au,(07) 4942 7455,,(07) 4942 5095,,17 Holts Road,Beaconsfield,4740,PO Box 10419,Mount Pleasant,,4740,Central Queensland,Dawson,Mackay,Mackay (R),Andergrove - Beaconsfield,312021342,Inner Regional Australia,,,,0.00,,,Non-State,Independent,149.164413,-21.100698
5596,Carmel College (Thornlands),Non-State School,Open,,,Year 7,Year 12,Principal,,,www.carmelcollege.qld.edu.au,(07) 3488 7777,,(07) 3206 0474,,20 Ziegenfusz Road,Thornlands,4164,PO Box 1725,Cleveland,,4163,South East,Bowman,Redlands,Redland (C),Thornlands,301021012,Major Cities of Australia,,,,0.00,,,Non-State,Catholic,153.267054,-27.565332
5558,Carmichael College (Morayfield),Non-State School,Open,,,Prep Year,Year 8,Principal,,,www.carmichael.qld.edu.au,(07) 5431 1200,,,,793-833 Oakey Flat Road,Morayfield,4506,793 Oakey Flat Road,Morayfield,,4506,North Coast,Longman,Morayfield,Moreton Bay (R),Morayfield,313041374,Major Cities of Australia,,,,0.00,,,Non-State,Independent,152.918516,-27.172913
A834,Catherine McAuley College (Mackay),Non-State School,Open,,,Year 7,Year 7,Principal,,,,(07) 4994 9200,,,,239-255 Nebo Road,Mackay,4741,239 - 255 Nebo Road,Mackay,,4741,Central Queensland,Dawson,Mackay,Mackay (R),West Mackay,312021358,Inner Regional Australia,,,,,,,Non-State,Catholic,149.159360,-21.161540
B055,Challenge Trade and Business College,Non-State School,Open,,,Year 11,Year 12,Principal,,,,0419 005 703,,,Westfalen,27 Bailey Street,Collingwood Park,4301,Po Box 272,Redbank Plains,,4301,Metropolitan,Blair,Bundamba,Ipswich (C),Collingwood Park - Redbank,310041299,Major Cities of Australia,,,,,,,Non-State,Independent,152.859470,-27.611470
5409,Chanel College (Gladstone),Non-State School,Open,,,Year 7,Year 12,Principal,,,www.chanelcollege.qld.edu.au,(07) 4973 4700,,(07) 4978 3991,,11 Paterson Street,Gladstone,4680,11 Paterson Street,Gladstone,,4680,Central Queensland,Flynn,Gladstone,Gladstone (R),West Gladstone,308051539,Inner Regional Australia,,,,0.00,,,Non-State,Catholic,151.242562,-23.867249
A114,Charlotte Mason College (Kallangur),Non-State School,Open,,,Prep Year,Year 10,Principal,,,www.cmc.qld.edu.au,0437 453 910,,,,30 Narangba Road,Kallangur,4503,PO Box 546,Kallangur,,4503,North Coast,Dickson,Murrumba,Moreton Bay (R),Dakabin - Kallangur,314021388,Major Cities of Australia,,,,0.00,,,Non-State,Independent,152.978832,-27.250754
5792,Chinchilla Christian College (Chinchilla),Non-State School,Open,,,Prep Year,Year 12,Principal,,,www.chinchillacc.qld.edu.au,(07) 4668 9777,,(07) 4668 9770,,88 Oak Street,Chinchilla,4413,PO Box 242,Chinchilla,,4413,Darling Downs South West,Maranoa,Callide,Western Downs (R),Chinchilla,307011172,Outer Regional Australia,,,,0.00,,,Non-State,Independent,150.641055,-26.737896
5380,Chisholm Catholic College (Cornubia),Non-State School,Open,,,Year 7,Year 12,Principal,,,www.chisholm.qld.edu.au,(07) 3209 0700,,(07) 3287 6291,,204 California Creek Road,Cornubia,4130,Po Box 3078,Loganholme,,4129,South East,Forde,Macalister,Logan (C),Cornubia - Carbrook,311051324,Major Cities of Australia,,,,0.00,,,Non-State,Catholic,153.204515,-27.666326
5106,Christ the King Catholic Primary School (Deception Bay),Non-State School,Open,,,Prep Year,Year 6,Principal,,,www.christthekingdbay.qld.edu.au,(07) 3203 2164,N,(07) 3204 2330,,54 Thompson Street,Deception Bay,4508,54 Thompson Street,Deception Bay,,4508,North Coast,Petrie,Bancroft,Moreton Bay (R),Deception Bay,313041373,Major Cities of Australia,,,,0.00,,,Non-State,Catholic,153.020804,-27.180497
5003,Christ the King School (Graceville),Non-State School,Open,,,Prep Year,Year 6,Principal,,,www.ctk.qld.edu.au,(07) 3379 7872,N,(07) 3379 9534,,7 Randolph Street,Graceville,4075,7 Randolph Street,Graceville,,4075,Metropolitan,Moreton,Miller,Brisbane (C),Chelmer - Graceville,304031092,Major Cities of Australia,,,,0.00,,,Non-State,Catholic,152.977405,-27.519745
5871,Citipointe Christian College (Carindale),Non-State School,Open,,,Prep Year,Year 12,Principal,,,www.citipointe.qld.edu.au,(07) 3347 5899,,(07) 3347 5900,,322 Wecker Road,Carindale,4152,322 Wecker Road,Carindale,,4152,Metropolitan,Bonner,Mansfield,Brisbane (C),Mansfield (Qld),303031062,Major Cities of Australia,,,,0.00,,,Non-State,Independent,153.113205,-27.534843
5376,Clairvaux Mackillop College (Upper Mount Gravatt),Non-State School,Open,,,Year 7,Year 12,Principal,,,www.cvxmck.edu.au,(07) 3347 9200,N,(07) 3347 9211,,Klumpp Road,Upper Mount Gravatt,4122,PO Box 349,Mount Gravatt,,4122,Metropolitan,Bonner,Mansfield,Brisbane (C),Upper Mount Gravatt,303031065,Major Cities of Australia,,,,0.00,,,Non-State,Catholic,153.077876,-27.552819
5466,Clayfield College (Clayfield),Non-State School,Open,,,Prep Year,Year 12,Principal,,,www.clayfield.qld.edu.au,(07) 3262 0262,,(07) 3262 0225,,23 Gregory Street,Clayfield,4011,PO Box 387,Clayfield,,4011,Metropolitan,Brisbane,Clayfield,Brisbane (C),Clayfield,305031122,Major Cities of Australia,,,,0.00,,,Non-State,Independent,153.051935,-27.420201
1653,Columba Catholic College (Hackett Tce- Charters Towers),Non-State School,Open,,,Year 7,Year 12,Principal,,,www.columba.catholic.edu.au,(07) 4787 1744,,(07) 4787 4986,,6-8 Hackett Terrace,Charters Towers,4820,PO Box 274,Charters Towers,,4820,North Queensland,Kennedy,Traeger,Charters Towers (R),Charters Towers,318011462,Outer Regional Australia,,,,0.00,,,Non-State,Catholic,146.272891,-20.061444
5498,Concordia Lutheran College (Stephen St - Toowoomba),Non-State School,Open,,,Year 7,Year 12,Head of College,,,www.concordia.qld.edu.au,(07) 4688 2700,N,(07) 4688 2799,,154 Stephen Street,Toowoomba,4350,154 Stephen Street,Toowoomba,,4350,Darling Downs South West,Groom,Toowoomba South,Toowoomba (R),Drayton - Harristown,317011447,Inner Regional Australia,,,,0.00,,,Non-State,Independent,151.929904,-27.573254
5855,Cooloola Christian College (Gympie),Non-State School,Open,,,Prep Year,Year 12,Principal,,,www.ccc.qld.edu.au,(07) 5481 1000,,(07) 5483 6299,,1 College Road,Gympie,4570,PO Box 1355,Gympie,,4570,North Coast,Wide Bay,Gympie,Gympie (R),Gympie - South,319031513,Inner Regional Australia,,,,0.00,,,Non-State,Independent,152.642124,-26.198173
5414,Coolum Beach Christian College (Coolum Beach),Non-State School,Open,,,Prep Year,Year 12,Principal,,,www.cbcc.qld.edu.au,(07) 5446 4780,,(07) 5446 4893,,2 Arcoona Road,Coolum Beach,4573,PO Box 480,Coolum Beach,,4573,North Coast,Fairfax,Ninderry,Sunshine Coast (R),Eumundi - Yandina,316071547,Inner Regional Australia,,,,0.00,,,Non-State,Independent,153.047226,-26.535421
0594,Coomera Anglican College (Upper Coomera),Non-State School,Open,,,Prep Year,Year 12,Principal,,,www.cac.qld.edu.au,(07) 5585 9900,,(07) 5585 9911,,8 Days Road,Upper Coomera,4209,PO Box 457,Upper Coomera,,4209,South East,Forde,Coomera,Gold Coast (C),Upper Coomera - Willow Vale,309071258,Major Cities of Australia,,,,0.00,,,Non-State,Independent,153.305543,-27.858492
5583,Dalby Christian College (Dalby),Non-State School,Open,,,Prep Year,Year 12,Principal,,,www.dalbycc.qld.edu.au,(07) 4672 4222,,(07) 4669 8276,,14 Irvingdale Road,Dalby,4405,14 Irvingdale Road,Dalby,,4405,Darling Downs South West,Maranoa,Warrego,Western Downs (R),Wambo,307021183,Inner Regional Australia,,,,0.00,,,Non-State,Independent,151.278027,-27.172244
5482,Darling Downs Christian School (Toowoomba),Non-State School,Open,,,Prep Year,Year 12,Principal,,,www.ddcs.qld.edu.au,(07) 4659 1111,N,(07) 4659 1199,,451 McDougall Street,Toowoomba,4350,451 McDougall Street,Toowoomba,,4350,Darling Downs South West,Groom,Toowoomba South,Toowoomba (R),Toowoomba - West,317011458,Inner Regional Australia,,,,0.00,,,Non-State,Independent,151.905457,-27.569380
A974,Darlingia Forest School (East Innisfail),Non-State School,Open,,,Prep Year,Year 4,Principal,,,darlingia.org,0481 430 585,,,,89 Mourilyan Road,East Innisfail,4860,89 Mourilyan Road,East Innisfail,,4860,Far North Queensland,Kennedy,Hill,Cassowary Coast (R),Innisfail,306031159,Outer Regional Australia,,,,,,,Non-State,Independent,146.032999,-17.533719
5637,Deception Bay Flexible Learning Centre (Grosvenor Tce & Silver St - Deception Bay),Non-State School,Open,,,Year 7,Year 12,Principal,,,www.ereafsn.edu.au,(07) 3204 2200,,(07) 3293 4046,,17 Silver Street,Deception Bay,4508,PO Box 531,Deception Bay,,4508,North Coast,Petrie,Bancroft,Moreton Bay (R),Deception Bay,313041373,Major Cities of Australia,,,,0.00,,,Non-State,Catholic,153.030166,-27.191021
B030,Desert Mob Silver Lining School (Barcaldine),Non-State School,Open,,,Year 7,Year 12,Principal,,,www.silverlining.org.au,,,,,69 Acacia Street,Barcaldine,4725,69 Acacia Street,Barcaldine,,4725,Central Queensland,Maranoa,Gregory,Barcaldine (R),Barcaldine - Blackall,315031408,Very Remote Australia,,,,,,,Non-State,Independent,145.288390,-23.560023
9729,Discovery Christian College (Agnes Water),Non-State School,Open,,,Prep Year,Year 12,Principal,,,www.discovery.qld.edu.au,(07) 4974 7336,,,,2873 Round Hill Road,Agnes Water,4677,PO Box 198,Agnes Water,,4677,North Coast,Flynn,Burnett,Gladstone (R),Agnes Water - Miriam Vale,308051530,Outer Regional Australia,,,,0.00,,,Non-State,Independent,151.893306,-24.220044
B094,Djarragun College,Non-State School,Open,,,Prep Year,Year 12,Executive Principal,,,www.djarragun.qld.edu.au,(07) 4043 3777,,,,1 Maher Road,Gordonvale,4865,1 Maher Road,Gordonvale,,4865,Far North Queensland,Kennedy,Mulgrave,Cairns (R),Gordonvale - Trinity,306021148,Outer Regional Australia,,,,,,,Non-State,Independent,145.776850,-17.080190
5395,Downlands College (Toowoomba),Non-State School,Open,,,Year 4,Year 12,Principal,,,www.downlands.qld.edu.au,(07) 4690 9500,,(07) 4690 9610,,72 Ruthven Street,Toowoomba,4350,PO Box 250,Toowoomba,,4350,Darling Downs South West,Groom,Toowoomba North,Toowoomba (R),North Toowoomba - Harlaxton,317011454,Inner Regional Australia,,,,0.00,,,Non-State,Catholic,151.957669,-27.535344
2288,Emerald Christian College (Emerald),Non-State School,Open,,,Prep Year,Year 12,Principal,,,www.ecc.qld.edu.au,(07) 4982 0977,,(07) 4982 0244,,6373 Gregory Highway,Emerald,4720,PO Box 1993,Emerald,,4720,Central Queensland,Flynn,Gregory,Central Highlands (R),Emerald,308011192,Outer Regional Australia,,,,0.00,,,Non-State,Independent,148.170844,-23.552873
0367,Emmanuel Catholic Primary School (Mount Pleasant),Non-State School,Open,,,Prep Year,Year 6,Principal,,,www.ecps.qld.edu.au,(07) 4942 5999,N,(07) 4942 5225,,Baxter Drive,Mount Pleasant,4740,PO Box 8064,Mount Pleasant,,4740,Central Queensland,Dawson,Mackay,Mackay (R),Mount Pleasant - Glenella,312021348,Inner Regional Australia,,,,0.00,,,Non-State,Catholic,149.157288,-21.110706
5814,Emmanuel College (Carrara),Non-State School,Open,,,Prep Year,Year 12,Principal,,,www.emmanuel.qld.edu.au,(07) 5561 4000,,(07) 5561 4011,,Birmingham Road,Carrara,4211,Locked Bag No 5,Nerang,,4211,South East,Moncrieff,Gaven,Gold Coast (C),Carrara,309061246,Major Cities of Australia,,,,0.00,,,Non-State,Independent,153.369536,-28.016537
2358,Emmaus College (Jimboomba),Non-State School,Open,,,Prep Year,Year 12,Principal,,,www.emmausjimboomba.qld.edu.au,(07) 5547 9990,,(07) 5546 9903,,48 East Street,Jimboomba,4280,PO Box 539,Jimboomba,,4280,South East,Wright,Logan,Logan (C),Jimboomba,311041321,Inner Regional Australia,,,,0.00,,,Non-State,Catholic,153.037962,-27.833973
5408,Emmaus College (Park Avenue),Non-State School,Open,,,Year 10,Year 12,Principal,,,www.emmaus.qld.edu.au,(07) 4923 5700,,(07) 4923 5716,,185 Main Street,Park Avenue,4701,PO Box 5799,Central Queensland MC,,4702,Central Queensland,Capricornia,Rockhampton,Rockhampton (R),Park Avenue,308031214,Inner Regional Australia,,,,0.00,,,Non-State,Catholic,150.521430,-23.350242
7107,Endeavour Christian College (Cooktown),Non-State School,Open,,,Prep Year,Year 12,Principal,,,www.endeavour.qld.edu.au,(07) 4082 0600,,,,12 Charles Street,Cooktown,4895,PO Box 110,Cooktown,,4895,Far North Queensland,Leichhardt,Cook,Cook (S),Cape York,315011396,Remote Australia,,,,0.00,,,Non-State,Independent,145.254912,-15.482271
A736,Enkindle Village School (Douglas),Non-State School,Open,,,Prep Year,Year 5,Principal,,,www.enkindleschool.com.au,0429 704 907,,,"Building 30, JCU",James Cook Drive,Douglas,4814,"Building 30, James Cook University",James Cook Drive,Douglas,4814,North Queensland,Herbert,Mundingburra,Townsville (C),Douglas,318021474,Outer Regional Australia,,,,0.00,,,Non-State,Independent,146.757110,-19.329850
5473,Fairholme College (Toowoomba),Non-State School,Open,,,Prep Year,Year 12,Principal,,,www.fairholme.qld.edu.au,(07) 4688 4688,,(07) 4688 4694,,40 Wirra Wirra Street,Toowoomba,4350,PO Box 688,Toowoomba,,4350,Darling Downs South West,Groom,Toowoomba North,Toowoomba (R),Toowoomba - East,317011457,Inner Regional Australia,,,,0.00,,,Non-State,Independent,151.977165,-27.555323
0736,Faith Baptist Christian School (Burua),Non-State School,Open,,,Prep Year,Year 12,Principal,,,www.faithbaptistchurch.com.au,(07) 4978 2850,,(07) 4978 2420,,1315 Dawson Highway,Burua,4680,PO Box 7045,Kin Kora,,4680,Central Queensland,Flynn,Gladstone,Gladstone (R),Gladstone Hinterland,308051535,Inner Regional Australia,,,,0.00,,,Non-State,Independent,151.219937,-23.936130
B034,Faith Christian School of Distance Education (Underwood),Non-State School,Open,,,Prep Year,Year 12,Principal,,,,,,,Unit 2,6-12 Graham Street,Underwood,4119,Unit 2,6 - 12 Graham Street,,4119,Metropolitan,Rankin,Waterford,Logan (C),Underwood,311061335,Major Cities of Australia,,,,,,,Non-State,Independent,153.108330,-27.618360
2222,Faith Lutheran College - Plainland (Plainland),Non-State School,Open,,,Year 7,Year 12,Principal,,,www.faithlc.qld.edu.au,(07) 5466 9900,N,(07) 5466 9911,,5 Faith Avenue,Plainland,4341,5 Faith Avenue,Plainland,,4341,Darling Downs South West,Wright,Lockyer,Lockyer Valley (R),Lockyer Valley - East,310021280,Inner Regional Australia,,,,0.00,,,Non-State,Independent,152.416193,-27.568044
5763,Faith Lutheran College - Redlands (Victoria Point),Non-State School,Open,,,Prep Year,Year 6,Principal,,,www.faithlutheran.qld.edu.au,(07) 3820 5500,,(07) 3820 5511,,132 Link Road,Victoria Point,4165,PO Box 5400,Victoria Point,,4165,South East,Bowman,Redlands,Redland (C),Victoria Point,301021013,Major Cities of Australia,,,,0.00,,,Non-State,Independent,153.293386,-27.584875
0005,Fraser Coast Anglican College (Wondunna),Non-State School,Open,,,Prep Year,Year 12,Principal,,,www.fcac.qld.edu.au,(07) 4124 5411,N,(07) 4124 5833,,Doolong South Road,Wondunna,4655,PO Box 1150,Hervey Bay,,4655,North Coast,Hinkler,Hervey Bay,Fraser Coast (R),Urangan - Wondunna,319041521,Inner Regional Australia,,,,0.00,,,Non-State,Independent,152.852598,-25.317102
5887,Freshwater Christian College (Brinsmead),Non-State School,Open,,,Prep Year,Year 12,Principal,,,www.freshwatercc.qld.edu.au,(07) 4055 1337,,(07) 4055 1930,,369-401 Brinsmead Road,Brinsmead,4870,PO Box 643,Redlynch,,4870,Far North Queensland,Leichhardt,Cairns,Cairns (R),Brinsmead,306011138,Outer Regional Australia,,,,0.00,,,Non-State,Independent,145.708225,-16.892546
5592,Genesis Christian College (Bray Park),Non-State School,Open,,,Prep Year,Year 12,Principal,,,www.genesis.qld.edu.au,(07) 3882 9000,,(07) 3882 1581,,10 - 16 Youngs Crossing Road,Bray Park,4500,PO Box 5206,Brendale,,4500,North Coast,Dickson,Kurwongbah,Moreton Bay (R),Bray Park,314031391,Major Cities of Australia,,,,0.00,,,Non-State,Independent,152.953968,-27.288804
5328,Gilroy Santa Maria College (Ingham),Non-State School,Open,,,Year 7,Year 12,Principal,,,www.gilroysm.catholic.edu.au,(07) 4776 2888,,(07) 4776 3758,,17 Chamberlain Street,Ingham,4850,PO Box 1013,Ingham,,4850,North Queensland,Kennedy,Hinchinbrook,Hinchinbrook (S),Ingham,318011464,Outer Regional Australia,,,,0.00,,,Non-State,Catholic,146.155588,-18.644506
2257,Glasshouse Christian College (Beerwah),Non-State School,Open,,,Prep Year,Year 12,Principal,,,www.glasshouse.qld.edu.au,(07) 5439 0033,,(07) 5439 0044,,58 Roberts Road,Beerwah,4519,PO Box 384,Beerwah,,4519,North Coast,Fisher,Caloundra,Sunshine Coast (R),Beerwah,316061439,Inner Regional Australia,,,,0.00,,,Non-State,Independent,152.951870,-26.861627
0741,Glenvale Christian School (Glenvale),Non-State School,Open,,,Prep Year,Year 6,Principal,,,www.gcs.qld.edu.au,(07) 4634 0113,,(07) 4634 0114,,623-661 Boundary Street,Glenvale,4350,623-661 Boundary Street,Toowoomba,,4350,Darling Downs South West,Groom,Condamine,Toowoomba (R),Toowoomba - West,317011458,Inner Regional Australia,,,,0.00,,,Non-State,Independent,151.900098,-27.561025
5477,Gold Coast Christian College (Reedy Creek),Non-State School,Open,,,Prep Year,Year 12,Principal,,,www.goldcoastchristiancollege.qld.edu.au,(07) 5593 4571,,(07) 5593 8538,,7-9 Bridgman Drive,Reedy Creek,4227,7-9 Bridgman Drive,Reedy Creek,,4228,South East,Mcpherson,Mudgeeraba,Gold Coast (C),Reedy Creek - Andrews,309051245,Major Cities of Australia,,,,0.00,,,Non-State,Independent,153.400256,-28.103771
5437,Good Counsel College (Innisfail),Non-State School,Open,,,Year 7,Year 12,Principal,,,www.gcc.qld.edu.au,(07) 4063 5300,,(07) 4061 4659,,66 Owen Street,Innisfail,4860,PO Box 839,Innisfail,,4860,Far North Queensland,Kennedy,Hill,Cassowary Coast (R),Innisfail,306031159,Outer Regional Australia,,,,0.00,,,Non-State,Catholic,146.028513,-17.520798
5263,Good Counsel Primary School (Innisfail),Non-State School,Open,,,Prep Year,Year 6,Principal,,,www.gcps.qld.edu.au,(07) 4061 2994,,(07) 4061 2271,,96 Rankin Street,Innisfail,4860,96 Rankin Street,Innisfail,,4860,Far North Queensland,Kennedy,Hill,Cassowary Coast (R),Innisfail,306031159,Outer Regional Australia,,,,0.00,,,Non-State,Catholic,146.028891,-17.521294
5768,Good News Lutheran School (Middle Park),Non-State School,Open,,,Prep Year,Year 6,Principal,,,www.gnls.qld.edu.au,(07) 3373 4400,,(07) 3376 2858,,49 Horizon Drive,Middle Park,4074,PO Box 184,Mount Ommaney,,4074,Metropolitan,Oxley,Mount Ommaney,Brisbane (C),Middle Park - Jamboree Heights,304011082,Major Cities of Australia,,,,0.00,,,Non-State,Independent,152.927692,-27.555300
A106,Good Samaritan Catholic College (Bli Bli),Non-State School,Open,,,Prep Year,Year 9,Principal,,,www.goodsamaritan.qld.edu.au,(07) 5374 8800,,,,185 Parklakes Drive,Bli Bli,4560,PO Box 400,Bli Bli,,4560,North Coast,Fairfax,Ninderry,Sunshine Coast (R),Bli Bli,316071545,Major Cities of Australia,,,,0.00,,,Non-State,Catholic,153.020970,-26.596180
2367,Good Samaritan College (Toowoomba),Non-State School,Open,,,Year 7,Year 12,Principal,,,www.gsctwb.catholic.edu.au,(07) 4638 9807,,(07) 4613 1999,,63 Ruthven Street,Toowoomba,4350,PO Box 169,Harlaxton,,4350,Darling Downs South West,Groom,Toowoomba North,Toowoomba (R),North Toowoomba - Harlaxton,317011454,Inner Regional Australia,,,,0.00,,,Non-State,Catholic,151.955281,-27.533144
5421,Good Shepherd Catholic College (Mount Isa),Non-State School,Open,,,Year 7,Year 12,Principal,,,www.goodshepherd.catholic.edu.au,(07) 4743 2509,,(07) 4743 5013,,Cnr Mary and Camooweal Streets,Mount Isa,4825,PO Box 1542,Mount Isa,,4825,North Queensland,Kennedy,Traeger,Mount Isa (C),Mount Isa,315021405,Remote Australia,,,,0.00,,,Non-State,Catholic,139.494530,-20.722087
7612,Good Shepherd Catholic Primary School (Springfield Lakes),Non-State School,Open,,,Prep Year,Year 6,Principal,,,www.goodshepherd.qld.edu.au,(07) 3437 5000,,(07) 3437 5199,,58 Opperman Drive,Springfield Lakes,4300,PO Box 4317,Springfield,,4300,Metropolitan,Blair,Jordan,Ipswich (C),Springfield Lakes,310041304,Major Cities of Australia,,,,0.00,,,Non-State,Catholic,152.910131,-27.695975
0308,Good Shepherd Catholic School (Rasmussen),Non-State School,Open,,,Prep Year,Year 6,Principal,,,www.gstsv.catholic.edu.au,(07) 4774 0477,,(07) 4774 0023,,65 Allambie Lane,Rasmussen,4815,PO Box 10006,Rasmussen,,4815,North Queensland,Herbert,Thuringowa,Townsville (C),Condon - Rasmussen,318021471,Outer Regional Australia,,,,0.00,,,Non-State,Catholic,146.724480,-19.364326
5161,Good Shepherd Christian School (Albany Creek),Non-State School,Open,,,Prep Year,Year 12,Principal,,,www.gscs.qld.edu.au,(07) 3264 2655,,(07) 3264 5189,,185 Old Northern Road,Albany Creek,4035,185 Old Northern Road,Albany Creek,,4035,Metropolitan,Dickson,Everton,Moreton Bay (R),Albany Creek,314011382,Major Cities of Australia,,,,0.00,,,Non-State,Independent,152.965516,-27.343939
5520,Good Shepherd Lutheran College (Noosaville),Non-State School,Open,,,Prep Year,Year 12,Principal,,,www.gslc.qld.edu.au,(07) 5455 8600,N,(07) 5449 8086,,115 Eumundi Road,Noosaville,4566,PO Box 1288,Noosaville DC,,4566,North Coast,Wide Bay,Noosa,Noosa (S),Noosaville,316051435,Major Cities of Australia,,,,0.00,,,Non-State,Independent,153.049301,-26.408584
A659,Goora Gan Steiner School (Agnes Water),Non-State School,Open,,,Prep Year,Year 6,Facilitator,,,www.gooragansteiner.qld.edu.au,(07) 4974 7734,,,,1 Surf Club Avenue,Agnes Water,4677,PO Box 386,Agnes Water,,4677,North Coast,Flynn,Burnett,Gladstone (R),Agnes Water - Miriam Vale,308051530,Outer Regional Australia,,,,0.00,,,Non-State,Independent,151.894370,-24.195330
5780,Grace Lutheran College (Rothwell),Non-State School,Open,,,Year 7,Year 12,Principal,,,www.glc.qld.edu.au,(07) 3203 0066,,(07) 3897 2188,,Anzac Avenue and Mewes Road,Rothwell,4022,PO Box 3181,Clontarf DC,,4019,North Coast,Petrie,Murrumba,Moreton Bay (R),Rothwell - Kippa-Ring,313051380,Major Cities of Australia,,,,0.00,,,Non-State,Independent,153.056764,-27.218266
5760,Grace Lutheran Primary School (Clontarf),Non-State School,Open,,,Prep Year,Year 6,Principal,,,www.graceprimary.qld.edu.au,(07) 3283 0011,N,(07) 3283 0012,,38 Maine Road,Clontarf,4019,PO Box 3099,Clontarf DC,,4019,North Coast,Petrie,Redcliffe,Moreton Bay (R),Clontarf,313051377,Major Cities of Australia,,,,0.00,,,Non-State,Independent,153.089639,-27.254208
1860,Groves Christian College (Laughlin St - Kingston),Non-State School,Open,,,Prep Year,Year 12,Principal,,,www.groves.qld.edu.au,(07) 3380 5800,,,,70 Laughlin Street,Kingston,4114,PO Box 27,Kingston,,4114,South East,Rankin,Woodridge,Logan (C),Kingston (Qld.),311061330,Major Cities of Australia,,,,0.00,,,Non-State,Independent,153.109923,-27.660937
5113,Guardian Angels' Catholic Primary School (Ashmore),Non-State School,Open,,,Prep Year,Year 6,Principal,,,www.gaps.qld.edu.au,(07) 5510 0055,,(07) 5510 2830,,Edmund Rice Drive,Ashmore,4214,PO Box 267,Ashmore City,,4214,South East,Moncrieff,Southport,Gold Coast (C),Southport - North,309091540,Major Cities of Australia,,,,0.00,,,Non-State,Catholic,153.384189,-27.973050
5006,Guardian Angels' Primary School (Wynnum),Non-State School,Open,,,Prep Year,Year 6,Principal,,,www.guardianangelswynnum.qld.edu.au,(07) 3396 4486,,(07) 3348 4032,,188 Bay Terrace,Wynnum,4178,188 Bay Terrace,Wynnum,,4178,Metropolitan,Bonner,Lytton,Brisbane (C),Wynnum,301031020,Major Cities of Australia,,,,0.00,,,Non-State,Catholic,153.175848,-27.445823
5895,"Gulf Christian College (Brown St, Normanton)",Non-State School,Open,,,Prep Year,Year 9,Principal,,,www.gulfcc.qld.edu.au,(07) 4745 1180,,(07) 4745 1297,,24-30 Brown Street,Normanton,4890,PO Box 210,Normanton,,4890,North Queensland,Kennedy,Traeger,Carpentaria (S),Carpentaria,315021404,Very Remote Australia,,,,0.00,,,Non-State,Independent,141.079828,-17.670983
7611,Gympie Flexible Learning Centre (Gympie),Non-State School,Open,,,Year 7,Year 12,Principal,,,www.ereafsn.edu.au,(07) 5343 4009,,,,2 Bowen Lane,Gympie,4570,30 Everson Road,Gympie,,4570,North Coast,Wide Bay,Gympie,Gympie (R),Gympie - North,319031512,Inner Regional Australia,,,,0.00,,,Non-State,Catholic,152.678865,-26.186532
5899,Heights College (North Rockhampton),Non-State School,Open,,,Prep Year,Year 12,Headmaster,,,www.heights.qld.edu.au,(07) 4936 1076,,(07) 4936 3952,,276 Carlton Street,North Rockhampton,4701,PO Box 5671,Central Queensland MC,,4702,Central Queensland,Capricornia,Rockhampton,Rockhampton (R),Parkhurst - Kawana,308031215,Inner Regional Australia,,,,0.00,,,Non-State,Independent,150.515586,-23.328796
8192,Hemmant Flexible Learning Centre (Hemmant),Non-State School,Open,,,Year 7,Year 12,Principal,,,www.ereafsn.edu.au,(07) 3914 5116,,,,56 Hemmant-Tingalpa Road,Hemmant,4174,PO Box 7164,Hemmant,,4174,Metropolitan,Bonner,Lytton,Brisbane (C),Wynnum West - Hemmant,301031021,Major Cities of Australia,,,,0.00,,,Non-State,Catholic,153.126863,-27.448020
5862,Highlands Christian College (Toowoomba),Non-State School,Open,,,Prep Year,Year 12,Principal,,,www.highlandschristiancollege.com,(07) 4617 6555,,(07) 4617 6551,,505 Hume Street,Toowoomba,4350,505-513 Hume Street,Toowoomba,,4350,Darling Downs South West,Groom,Toowoomba South,Toowoomba (R),Darling Heights,317011446,Inner Regional Australia,,,,0.00,,,Non-State,Independent,151.949284,-27.600086
5441,Hillbrook Anglican School (Enoggera),Non-State School,Open,,,Year 7,Year 12,Principal,,,www.hillbrook.qld.edu.au,(07) 3354 3422,N,(07) 3354 1057,,45 Hurdcotte Street,Enoggera,4051,PO Box 469,Everton Park,,4053,Metropolitan,Ryan,Everton,Brisbane (C),Enoggera,304041098,Major Cities of Australia,,,,0.00,,,Non-State,Independent,152.989454,-27.416726
5571,Hillcrest Christian College (Reedy Creek),Non-State School,Open,,,Prep Year,Year 12,Principal,,,www.hillcrest.qld.edu.au,(07) 5593 4226,,(07) 5593 4227,,21 Bridgman Drive,Reedy Creek,4227,PO Box 2503,Burleigh MDC,,4220,South East,Mcpherson,Mudgeeraba,Gold Coast (C),Reedy Creek - Andrews,309051245,Major Cities of Australia,,,,0.00,,,Non-State,Independent,153.397631,-28.103266
5798,Hills International College (Jimboomba),Non-State School,Open,,,Prep Year,Year 12,Principal,,,www.hills.qld.edu.au,(07) 5546 0667,,(07) 5547 9677,,105-111 Johanna Street,Jimboomba,4280,PO Box 1,Jimboomba,,4280,South East,Wright,Logan,Logan (C),Jimboomba,311041321,Inner Regional Australia,,,,0.00,,,Non-State,Independent,153.017929,-27.816535
5589,Hinchinbrook Christian School (Ingham),Non-State School,Open,,,Year 7,Year 9,Principal,,,www.hinchinbrookcs.org.au,(07) 4776 3111,,(07) 4776 1479,,77 Halifax Road,Ingham,4850,PO Box 1047,Ingham,,4850,North Queensland,Kennedy,Hinchinbrook,Hinchinbrook (S),Ingham,318011464,Outer Regional Australia,,,,0.00,,,Non-State,Independent,146.167615,-18.638712
5891,Holy Cross School (Trinity Park),Non-State School,Open,,,Prep Year,Year 6,Principal,,,www.holycross.qld.edu.au,(07) 4057 6920,,(07) 4057 8183,,Reed Road,Trinity Park,4879,PO Box 1026,Smithfield,,4878,Far North Queensland,Leichhardt,Barron River,Cairns (R),Trinity Beach - Smithfield,306011142,Outer Regional Australia,,,,0.00,,,Non-State,Catholic,145.695375,-16.810276
5009,Holy Cross School (Wooloowin),Non-State School,Open,,,Prep Year,Year 6,Principal,,,www.hcpswooloowin.qld.edu.au,(07) 3857 2443,N,(07) 3357 9532,,40 Morris Street,Wooloowin,4030,40 Morris Street,Wooloowin,,4030,Metropolitan,Brisbane,Clayfield,Brisbane (C),Wooloowin - Lutwyche,305031131,Major Cities of Australia,,,,0.00,,,Non-State,Catholic,153.039646,-27.424053
5010,Holy Family Primary School (Indooroopilly),Non-State School,Open,,,Prep Year,Year 6,Principal,,,www.holyfamilyps.qld.edu.au,(07) 3870 9600,,(07) 3870 5490,,37 Ward Street,Indooroopilly,4068,37 Ward Street,Indooroopilly,,4068,Metropolitan,Ryan,Maiwar,Brisbane (C),Indooroopilly,304031094,Major Cities of Australia,,,,0.00,,,Non-State,Catholic,152.980039,-27.499961
5146,Holy Name Primary School (Toowoomba),Non-State School,Open,,,Prep Year,Year 6,Principal,,,www.hntwb.catholic.edu.au,(07) 4632 4694,,(07) 4638 4087,,188 Bridge Street,Toowoomba,4350,PO Box 9412,Wilsonton,,4350,Darling Downs South West,Groom,Toowoomba North,Toowoomba (R),Toowoomba - Central,317011456,Inner Regional Australia,,,,0.00,,,Non-State,Catholic,151.946747,-27.550620
5233,Holy Spirit Catholic School (Cranbrook),Non-State School,Open,,,Prep Year,Year 6,Principal,,,www.hsstsv.catholic.edu.au,(07) 4779 4255,,(07) 4779 7580,,Hatchett Street,Cranbrook,4814,PO Box 26,Aitkenvale,,4814,North Queensland,Herbert,Mundingburra,Townsville (C),Cranbrook,318021472,Outer Regional Australia,,,,0.00,,,Non-State,Catholic,146.755653,-19.302168
8742,Holy Spirit College (Cooktown),Non-State School,Open,,,Year 7,Year 12,Principal,,,www.holyspiritcollege.qld.edu.au,(07) 4053 4550,,,,Cnr Hope and Burkitt Streets,Cooktown,4895,PO Box 591,Manunda,,4870,Far North Queensland,Leichhardt,Cook,Cook (S),Cape York,315011396,Remote Australia,,,,0.00,,,Non-State,Catholic,145.248444,-15.482536
A835,Holy Spirit College (Fitzgibbon),Non-State School,Open,,,Year 7,Year 7,Principal,,,www.holyspiritfitzgibbon.qld.edu.au,(07) 3375 8500,,,,441 Beams Road,Fitzgibbon,4018,441 Beams Road,Fitzgibbon,,4018,Metropolitan,Petrie,Sandgate,Brisbane (C),Taigum - Fitzgibbon,302041045,Major Cities of Australia,,,,,,,Non-State,Catholic,153.033370,-27.347790
0374,Holy Spirit College (Mount Pleasant),Non-State School,Open,,,Year 7,Year 12,Principal,,,www.hsc.qld.edu.au,(07) 4942 2088,N,(07) 4942 1154,,Baxter Drive,Mount Pleasant,4740,PO Box 8070,Mount Pleasant,,4740,Central Queensland,Dawson,Mackay,Mackay (R),Mount Pleasant - Glenella,312021348,Inner Regional Australia,,,,0.00,,,Non-State,Catholic,149.157496,-21.110374
5013,Holy Spirit School (Bray Park),Non-State School,Open,,,Prep Year,Year 6,Principal,,,www.holyspiritbraypark.qld.edu.au,(07) 3205 3955,N,(07) 3205 5315,,102 Sparkes Road,Bray Park,4500,PO Box 176,Strathpine,,4500,North Coast,Dickson,Pine Rivers,Moreton Bay (R),Bray Park,314031391,Major Cities of Australia,,,,0.00,,,Non-State,Catholic,152.970934,-27.293943
5012,Holy Spirit School (New Farm),Non-State School,Open,,,Prep Year,Year 6,Principal,,,www.holyspiritnewfarm.qld.edu.au,(07) 3358 2344,N,(07) 3254 0037,,36 Villiers Street,New Farm,4005,36 Villiers Street,New Farm,,4005,Metropolitan,Brisbane,McConnel,Brisbane (C),New Farm,305011109,Major Cities of Australia,,,,0.00,,,Non-State,Catholic,153.045811,-27.465151
5483,Hope Adventist School (North Bundaberg),Non-State School,Open,,,Prep Year,Year 6,Principal,,,www.hope.qld.edu.au,(07) 4151 7311,,(07) 4151 8368,,18 Walters Street,North Bundaberg,4670,PO Box 1414,Bundaberg North,,4670,North Coast,Hinkler,Bundaberg,Bundaberg (R),Bundaberg North - Gooburrum,319011497,Inner Regional Australia,,,,0.00,,,Non-State,Independent,152.331434,-24.853016
9714,Horizons College of Learning and Enrichment (Caboolture),Non-State School,Open,,,Year 7,Year 12,Principal,,,www.horizonscollege.qld.edu.au,(07) 5428 0104,,,,2 King Street,Caboolture,4510,PO Box 98,Caboolture,,4510,North Coast,Longman,Morayfield,Moreton Bay (R),Caboolture,313021365,Major Cities of Australia,,,,0.00,,,Non-State,Independent,152.954193,-27.085624
2373,Hubbard's School (Milton),Non-State School,Open,,,Year 11,Year 12,Principal,,,www.hubbards.qld.edu.au,(07) 3371 5999,,(07) 3371 5999,Level 1,15 Lang Parade,Milton,4064,PO Box 1576,Milton,,4064,Metropolitan,Brisbane,Cooper,Brisbane (C),Paddington - Milton,305041135,Major Cities of Australia,,,,0.00,,,Non-State,Independent,153.002410,-27.474466
B014,Humanitas High School (Fortitude Valley),Non-State School,Open,,,Year 7,Year 8,Principal,,,www.humanitashighschool.org.au,0410 365 993,,,,93 Brunswick Street,Fortitude Valley,4006,93 Brunswick Street,Fortitude Valley,,4006,Metropolitan,Brisbane,McConnel,Brisbane (C),Fortitude Valley,305011106,Major Cities of Australia,,,,,,,Non-State,Independent,153.030021,-27.454659
6309,Hymba Yumba Independent School (Springfield),Non-State School,Open,,,Prep Year,Year 12,Principal,,,www.hymbayumba.qld.edu.au,(07) 3381 8134,,,,6 Springfield Parkway,Springfield,4300,PO Box 4714,Springfield,,4300,Metropolitan,Oxley,Jordan,Ipswich (C),Springfield,310041303,Major Cities of Australia,,,,0.00,,,Non-State,Independent,152.909340,-27.664210
A760,IES College (Spring Hill),Non-State School,Open,,,Year 11,Year 12,Principal,,,www.iescollege.com,(07) 3832 7699,,,,495-499 Boundary Street,Spring Hill,4000,PO Box 989,Spring Hill,,4004,Metropolitan,Brisbane,McConnel,Brisbane (C),Spring Hill,305011111,Major Cities of Australia,,,,,,,Non-State,Independent,153.022110,-27.460390
5424,Ignatius Park College (Cranbrook),Non-State School,Open,,,Year 7,Year 12,Principal,,,www.ipc.qld.edu.au,(07) 4796 0222,N,(07) 4796 0200,,368-384 Ross River Road,Cranbrook,4814,PO Box 121,Aitkenvale,,4814,North Queensland,Herbert,Mundingburra,Townsville (C),Cranbrook,318021472,Outer Regional Australia,,,,0.00,,,Non-State,Catholic,146.757250,-19.299503
5016,Immaculate Heart School (Leichhardt),Non-State School,Open,,,Prep Year,Year 6,Principal,,,www.immac-heart.qld.edu.au,(07) 3812 1077,N,(07) 3812 2887,,24 Old Toowoomba Road,Leichhardt,4305,24 Old Toowoomba Road,Leichhardt,,4304,Metropolitan,Blair,Ipswich West,Ipswich (C),Leichhardt - One Mile,310031291,Major Cities of Australia,,,,0.00,,,Non-State,Catholic,152.738667,-27.628718
5499,Immanuel Lutheran College (Buderim),Non-State School,Open,,,Prep Year,Year 12,Principal,,,www.immanuel.qld.edu.au,(07) 5477 3444,N,(07) 5477 3477,,126-142 Wises Road,Buderim,4556,PO Box 5025,Maroochydore BC,,4558,North Coast,Fairfax,Buderim,Sunshine Coast (R),Buderim - North,316011413,Major Cities of Australia,,,,0.00,,,Non-State,Independent,153.082393,-26.671023
8578,Inala Flexible Learning Centre (Inala),Non-State School,Open,,,Year 7,Year 12,Principal,,,https://www.ereafsn.edu.au/inala-flc/,0417 795 906,,,,67 Poinsettia Street,Inala,4077,PO Box 1861,Milton,,4064,Metropolitan,Oxley,Inala,Brisbane (C),Inala - Richlands,310011274,Major Cities of Australia,,,,0.00,,,Non-State,Catholic,152.966550,-27.597860
B103,Indie School Logan,Non-State School,Open,,,Year 9,Year 12,Principal,,,www.indieschool.edu.au,0484 127 830,,,13,59-63 Eastern Road,Browns Plains,4118,13,59 - 63 Eastern Road,,4118,South East,Rankin,Algester,Logan (C),Browns Plains,311031312,Major Cities of Australia,,,,,,,Non-State,Independent,153.048950,-27.666210
5295,Iona College (Lindum),Non-State School,Open,,,Year 5,Year 12,Rector,,,www.iona.qld.edu.au,(07) 3893 8888,,(07) 3893 8800,,85 North Road,Lindum,4178,PO Box 351,Wynnum Central,,4178,Metropolitan,Bonner,Lytton,Brisbane (C),Wynnum West - Hemmant,301031021,Major Cities of Australia,,,,0.00,,,Non-State,Catholic,153.145659,-27.438460
5479,Ipswich Adventist School (Brassall),Non-State School,Open,,,Prep Year,Year 6,Principal,,,www.ias.qld.edu.au,(07) 3201 6233,,(07) 3201 4205,,56 Hunter Street,Brassall,4305,56 Hunter Street,Brassall,,4305,Metropolitan,Blair,Ipswich West,Ipswich (C),Brassall,310031283,Major Cities of Australia,,,,0.00,,,Non-State,Independent,152.745812,-27.595845
7922,Ipswich Flexible Learning Centre (Ipswich),Non-State School,Open,,,Year 7,Year 12,Principal,,,www.ereafsn.edu.au,(07) 3281 2565,,,Milford Place,1 Queen Victoria Parade,Ipswich,4305,PO Box 1861,Milton,,4064,Metropolitan,Blair,Ipswich,Ipswich (C),Ipswich - Central,310031286,Major Cities of Australia,,,,0.00,,,Non-State,Catholic,152.766496,-27.615641
5513,Ipswich Girls' Grammar School including Ipswich Junior Grammar School (East Ipswich),Non-State School,Open,,,Prep Year,Year 12,Principal,,,www.iggs.qld.edu.au,(07) 3454 4447,,(07) 3454 4483,,Cnr Queen Victoria Parade & Chermside Road,East Ipswich,4305,PO Box 16,Ipswich,,4305,Metropolitan,Blair,Ipswich,Ipswich (C),Ipswich - Central,310031286,Major Cities of Australia,,,,0.00,,,Non-State,Independent,152.771246,-27.614163
5514,Ipswich Grammar School (Ipswich),Non-State School,Open,,,Prep Year,Year 12,Headmaster,,,www.ipswichgrammar.com,(07) 3813 9600,,(07) 3280 1311,,Darling Street,Ipswich,4305,Locked Bag 6000,North Ipswich,,4305,Metropolitan,Blair,Ipswich,Ipswich (C),Ipswich - Central,310031286,Major Cities of Australia,,,,0.00,,,Non-State,Independent,152.752428,-27.614138
A739,IQRA College of Brisbane (Berrinba),Non-State School,Open,,,Prep Year,Year 6,Unknown,,,,,,,,97-109 Bardon Road,Berrinba,4117,97 - 109 Bardon Road,Berrinba,,4117,South East,Rankin,Woodridge,Logan (C),Logan Central,311061331,Major Cities of Australia,,,,,,,Non-State,Independent,153.098650,-27.650670
0091,Islamic College of Brisbane (Karawatha),Non-State School,Open,,,Prep Year,Year 12,Principal,,,www.icb.qld.edu.au,(07) 3841 3645,,(07) 3841 4320,,45 Acacia Road,Karawatha,4117,PO Box 1769,Springwood,,4127,Metropolitan,Rankin,Stretton,Brisbane (C),Calamvale - Stretton,303051073,Major Cities of Australia,,,,0.00,,,Non-State,Independent,153.093124,-27.618684
A731,Jabiru CC (Zillmere) Non-State School,Non-State School,Open,,,Year 10,Year 12,Unknown,,,,,,,(Entry Via Cambewarra Street),69 Pineapple Street,Zillmere,4034,Po Box 62,Zillmere,,4034,Metropolitan,Lilley,Aspley,Brisbane (C),Zillmere,302041046,Major Cities of Australia,,,,,,,Non-State,Independent,153.033034,-27.355548
5590,John Paul College (Daisy Hill),Non-State School,Open,,,Prep Year,Year 12,Principal,,,www.jpc.qld.edu.au,(07) 3826 3333,,(07) 3808 1028,,John Paul Drive,Daisy Hill,4127,John Paul Drive,Daisy Hill,,4127,South East,Rankin,Springwood,Logan (C),Daisy Hill,311061329,Major Cities of Australia,,,,0.00,,,Non-State,Independent,153.148456,-27.633606
A623,Josiah College (Carrara),Non-State School,Open,,,Year 2,Year 8,Principal,,,www.josiah.qld.edu.au,(07) 5561 4000,,,,1 Emerald Lakes Drive,Carrara,4211,Locked Bag 5,Nerang,,4211,South East,Moncrieff,Gaven,Gold Coast (C),Carrara,309061246,Major Cities of Australia,,,,0.00,,,Non-State,Independent,153.371363,-28.013692
5882,Jubilee Christian College (Atherton),Non-State School,Open,,,Prep Year,Year 12,Principal,,,www.jubileecc.qld.edu.au,(07) 4091 4627,,(07) 4091 4507,,52 Grau Street,Atherton,4883,PO Box 1275,Atherton,,4883,Far North Queensland,Kennedy,Hill,Tablelands (R),Atherton,306051166,Outer Regional Australia,,,,0.00,,,Non-State,Independent,145.478804,-17.275378
2263,Jubilee Primary School (Pacific Pines),Non-State School,Open,,,Prep Year,Year 6,Principal,,,www.jubileeprimary.qld.edu.au,(07) 5502 8566,N,(07) 5502 8522,,34 Manra Way,Pacific Pines,4211,PO Box 486,Helensvale,,4212,South East,Fadden,Gaven,Gold Coast (C),Pacific Pines - Gaven,309061249,Major Cities of Australia,,,,0.00,,,Non-State,Catholic,153.315885,-27.927924
9630,Kairos Community College (Deception Bay),Non-State School,Open,,,Year 10,Year 12,Head of School,,,www.kairoscc.org.au,(07) 3204 0277,,(07) 3204 1072,,100-166 Maine Terrace,Deception Bay,4508,PO Box 342,Deception Bay,,4508,North Coast,Petrie,Bancroft,Moreton Bay (R),Deception Bay,313041373,Major Cities of Australia,,,,0.00,,,Non-State,Independent,153.026950,-27.192334
2226,Kimberley College (Carbrook),Non-State School,Open,,,Prep Year,Year 12,Principal,,,www.kimberleycollege.org,(07) 3209 0300,,(07) 3287 6155,,35-41 Kruger Road,Carbrook,4130,PO Box 3578,Carbrook,,4130,South East,Forde,Macalister,Logan (C),Cornubia - Carbrook,311051324,Major Cities of Australia,,,,0.00,,,Non-State,Independent,153.235692,-27.680924
5582,King's Christian College (Reedy Creek),Non-State School,Open,,,Prep Year,Year 12,Principal,,,www.kingscollege.qld.edu.au,(07) 5587 7600,N,(07) 5587 7605,,68 Gemvale Road,Reedy Creek,4227,Locked Bag 70,Burleigh MDC,,4220,South East,Mcpherson,Mudgeeraba,Gold Coast (C),Reedy Creek - Andrews,309051245,Major Cities of Australia,,,,0.00,,,Non-State,Independent,153.397209,-28.097227
5595,Kingsley College (North Rockhampton),Non-State School,Open,,,Prep Year,Year 12,Principal,,,www.kingsley.qld.edu.au,(07) 4921 0580,,(07) 4921 2088,,2 Schoolhouse Street,Berserker,4701,2 Schoolhouse Street,BERSERKER,,4701,Central Queensland,Capricornia,Rockhampton,Rockhampton (R),Berserker,308031205,Inner Regional Australia,,,,0.00,,,Non-State,Independent,150.516419,-23.372351
B041,Kluthuthu Christian College (Napranum - Wa Tyne S),Non-State School,Open,,,Prep Year,Year 6,Principal,,,,,,,,37 Wa Tyne Street,Napranum,4874,37 Wa Tyne Street,Napranum,,4874,Far North Queensland,Leichhardt,Cook,Napranum (S),Cape York,315011396,Very Remote Australia,,,,,,,Non-State,Independent,141.887074,-12.683659
A793,Kutta Mulla Gorinna Special Assistance School (Mackay),Non-State School,Open,,,Year 7,Year 12,Executive Principal,,,www.kmg.qld.edu.au,(07) 4829 4302,,,,133 Alfred Street,Mackay,4740,PO Box 439,Mackay,,4740,Central Queensland,Dawson,Mackay,Mackay (R),Mackay,312021346,Inner Regional Australia,,,,0.00,,,Non-State,Independent,149.185650,-21.146320
0001,Lighthouse Christian School (Norman Gardens),Non-State School,Open,,,Prep Year,Year 12,Principal,,,www.lcs.qld.edu.au,(07) 4926 4895,,(07) 4926 2181,,480 Norman Road,Norman Gardens,4701,PO Box 9829,Frenchville,,4701,Central Queensland,Capricornia,Keppel,Rockhampton (R),Norman Gardens,308031213,Inner Regional Australia,,,,0.00,,,Non-State,Independent,150.537562,-23.338700
2331,Living Faith Lutheran Primary School (Murrumba Downs),Non-State School,Open,,,Prep Year,Year 6,Principal,,,www.livingfaith.qld.edu.au,(07) 3886 2677,,(07) 3886 2655,,50 Brays Road,Murrumba Downs,4503,50 Brays Rd,Murrumba Downs,,4503,North Coast,Dickson,Murrumba,Moreton Bay (R),Murrumba Downs - Griffin,314021389,Major Cities of Australia,,,,0.00,,,Non-State,Independent,153.014948,-27.255824
2417,Livingstone Christian College (Ormeau),Non-State School,Open,,,Prep Year,Year 12,Principal,,,www.livingstone.qld.edu.au,(07) 5540 8600,,,,62 Reedmans Road,Ormeau,4208,PO Box 420,Ormeau,,4208,South East,Fadden,Coomera,Gold Coast (C),Ormeau - Yatala,309071255,Major Cities of Australia,,,,0.00,,,Non-State,Independent,153.266589,-27.793135
5349,Loreto College Coorparoo (Coorparoo),Non-State School,Open,,,Year 7,Year 12,Principal,,,www.loreto.qld.edu.au,(07) 3394 9999,N,(07) 3847 1254,,415 Cavendish Road,Coorparoo,4151,415 Cavendish Road,Coorparoo,,4151,Metropolitan,Griffith,Greenslopes,Brisbane (C),Coorparoo,303021053,Major Cities of Australia,,,,0.00,,,Non-State,Catholic,153.063909,-27.509964
5350,Lourdes Hill College (Hawthorne),Non-State School,Open,,,Year 7,Year 12,Principal,,,www.lhc.qld.edu.au,(07) 3399 8888,N,(07) 3899 1007,,86 Hawthorne Road,Hawthorne,4171,86 Hawthorne Road,Hawthorne,,4171,Metropolitan,Griffith,Bulimba,Brisbane (C),Hawthorne,305021116,Major Cities of Australia,,,,0.00,,,Non-State,Catholic,153.058920,-27.469931
5529,Lutheran Ormeau Rivers District School (Pimpama),Non-State School,Open,,,Prep Year,Year 12,Principal,,,www.lords.qld.edu.au,(07) 5540 8888,,(07) 3511 4051,,68 Mirambeena Drive,Pimpama,4209,PO Box 1475,Beenleigh,,4207,South East,Fadden,Coomera,Gold Coast (C),Pimpama,309071257,Major Cities of Australia,,,,0.00,,,Non-State,Independent,153.285910,-27.800876
5888,Mackay Christian College (Quarry St - North Mackay),Non-State School,Open,,,Year 7,Year 12,Principal,,,www.mccmky.qld.edu.au,(07) 4963 1100,,(07) 4942 4085,,9 Quarry Street,North Mackay,4740,PO Box 3215,North Mackay,,4740,Central Queensland,Dawson,Mackay,Mackay (R),North Mackay,312021349,Inner Regional Australia,,,,0.00,,,Non-State,Independent,149.182439,-21.115089
8148,MacKillop Catholic College (Mount Peter),Non-State School,Open,,,Prep Year,Year 8,Principal,,,www.mackillopcatholiccollege.qld.edu.au,(07) 4045 5262,,(07) 4051 2859,,"1 Mackillop Road, Cnr Mount Peter Road",Mount Peter,4869,PO Box 1027,Edmonton,,4869,Far North Queensland,Kennedy,Mulgrave,Cairns (R),Gordonvale - Trinity,306021148,Outer Regional Australia,,,,0.00,,,Non-State,Catholic,145.740498,-17.040303
0098,MacKillop Catholic Primary School (Andergrove),Non-State School,Open,,,Prep Year,Year 6,Principal,,,www.mnmrok.catholic.edu.au,(07) 4955 3600,,(07) 4955 3611,,20 Nadarmi Drive,Andergrove,4740,20 Nadarmi Drive,Andergrove,,4740,Central Queensland,Dawson,Mackay,Mackay (R),Andergrove - Beaconsfield,312021342,Inner Regional Australia,,,,0.00,,,Non-State,Catholic,149.185566,-21.081183
5859,Mancel College (Fig Tree Pocket),Non-State School,Open,,,Prep Year,Year 11,Principal,,,www.glenleighden.org.au,(07) 3378 8625,,(07) 3378 8873,,33 Cubberla Street,Fig Tree Pocket,4069,33 Cubberla Street,Fig Tree Pocket,,4069,Metropolitan,Ryan,Maiwar,Brisbane (C),Fig Tree Pocket,304021089,Major Cities of Australia,,,,0.00,,,Non-State,Independent,152.963434,-27.527407
5139,Marian Catholic School (Currajong),Non-State School,Open,,,Prep Year,Year 6,Principal,,,www.marian.catholic.edu.au,(07) 4759 5888,,(07) 4759 5899,,198 - 208 Hugh Street,Currajong,4812,PO Box 100,Castletown,,4812,North Queensland,Herbert,Townsville,Townsville (C),Gulliver - Currajong - Vincent,318021476,Outer Regional Australia,,,,0.00,,,Non-State,Catholic,146.781630,-19.277288
A896,"Maridahdi Brisbane Primary School (Wynnum) ",Non-State School,Open,,,Prep Year,Year 5,Unknown,,,www.maridahdi.qld.edu.au,,,,Shop 6,89 Bay Terrace,Wynnum,4178,Shop 6,89 Bay Terrace,,4178,Metropolitan,Bonner,Lytton,Brisbane (C),Wynnum,301031020,Major Cities of Australia,,,,0.00,,,Non-State,Independent,153.173240,-27.443500
5524,Maridahdi Early Childhood Community School (Toowoomba),Non-State School,Open,,,Prep Year,Year 6,Principal,,,www.maridahdi.qld.edu.au,(07) 4635 1413,,(07) 4635 1116,,3-7 Bowtell Street,Toowoomba,4350,PO Box 4742,Toowoomba,,4350,Darling Downs South West,Groom,Toowoomba South,Toowoomba (R),Rangeville,317011455,Inner Regional Australia,,,,0.00,,,Non-State,Independent,151.981772,-27.583371
0204,Marist College (Emerald),Non-State School,Open,,,Year 7,Year 12,Principal,,,www.maristcollegeemerald.com.au,(07) 4982 3400,N,(07) 4982 3033,,Jeppesen Drive,Emerald,4720,PO Box 81,Emerald,,4720,Central Queensland,Flynn,Gregory,Central Highlands (R),Emerald,308011192,Outer Regional Australia,,,,0.00,,,Non-State,Catholic,148.159265,-23.543504
5307,Marist College Ashgrove (Ashgrove),Non-State School,Open,,,Year 5,Year 12,Headmaster,,,www.marash.qld.edu.au,(07) 3858 4555,N,(07) 3858 4502,,142 Frasers Road,Ashgrove,4060,PO Box 82,Ashgrove,,4060,Metropolitan,Brisbane,Ferny Grove,Brisbane (C),Ashgrove,305041132,Major Cities of Australia,,,,0.00,,,Non-State,Catholic,152.980354,-27.440171
5020,Mary Immaculate Primary School (Annerley),Non-State School,Open,,,Prep Year,Year 6,Principal,,,www.maryimmaculate.qld.edu.au,(07) 3848 8965,,(07) 3892 1143,,616 Ipswich Road,Annerley,4103,PO Box 491,Annerley,,4103,Metropolitan,Moreton,Miller,Brisbane (C),Annerley,303021052,Major Cities of Australia,,,,0.00,,,Non-State,Catholic,153.030331,-27.515906
2493,Mary MacKillop Catholic College (Highfields),Non-State School,Open,,,Prep Year,Year 12,Principal,,,www.highfields.catholic.edu.au,(07) 4698 7777,,(07) 4698 7900,,75 Highfields Road,Highfields,4352,Lot 5 Highfields Road,Highfields,,4352,Darling Downs South West,Groom,Toowoomba North,Toowoomba (R),Highfields,317011450,Inner Regional Australia,,,,0.00,,,Non-State,Catholic,151.942849,-27.451246
5347,Mary MacKillop College (Nundah),Non-State School,Open,,,Year 7,Year 12,Principal,,,www.mmc.qld.edu.au,(07) 3266 2100,,(07) 3266 2569,,60 Bage Street,Nundah,4012,60 Bage Street,Nundah,,4012,Metropolitan,Lilley,Nudgee,Brisbane (C),Nundah,302031040,Major Cities of Australia,,,,0.00,,,Non-State,Catholic,153.058481,-27.403843
5381,Marymount College (Burleigh Waters),Non-State School,Open,,,Year 7,Year 12,Principal,,,www.marymount.qld.edu.au,(07) 5586 1000,,(07) 5576 2511,,261-283 Reedy Creek Road,Burleigh Waters,4220,PO Box 2144,Burleigh MDC,,4220,South East,Mcpherson,Burleigh,Gold Coast (C),Burleigh Waters,309011226,Major Cities of Australia,,,,0.00,,,Non-State,Catholic,153.430422,-28.101546
5115,Marymount Primary School (Burleigh Heads),Non-State School,Open,,,Prep Year,Year 6,Principal,,,www.mps.qld.edu.au,(07) 5535 1803,,(07) 5535 1819,,261-283 Reedy Creek Road,Burleigh Waters,4220,PO Box 2506,Burleigh MDC,,4220,South East,Mcpherson,Burleigh,Gold Coast (C),Burleigh Waters,309011226,Major Cities of Australia,,,,0.00,,,Non-State,Catholic,153.429495,-28.101051
A970,Mastery Schools Australia (Varsity Lakes),Non-State School,Open,,,Year 4,Year 10,Director,,,www.masteryschoolsaustralia.org,(07) 5689 3553,,,,1 Bellvue Drive,Varsity Lakes,4227,1 Bellvue Drive,Varsity Lakes,,4227,South East,Mcpherson,Mermaid Beach,Gold Coast (C),Varsity Lakes,309081262,Major Cities of Australia,,,,,,,Non-State,Independent,153.409030,-28.079686
5021,Mater Dei Catholic Primary School (Ashgrove West),Non-State School,Open,,,Prep Year,Year 6,Principal,,,www.materdei.qld.edu.au,(07) 3514 4100,,(07) 3366 0395,,7 Lynwood Crescent,Ashgrove West,4060,7 Lynwood Crescent,Ashgrove West,,4060,Metropolitan,Ryan,Cooper,Brisbane (C),Ashgrove,305041132,Major Cities of Australia,,,,0.00,,,Non-State,Catholic,152.973686,-27.448946
5150,Mater Dei Primary School (Toowoomba),Non-State School,Open,,,Prep Year,Year 6,Principal,,,www.mdpstwb.catholic.edu.au,(07) 4637 6100,,(07) 4632 8630,,53 Curzon Street,Toowoomba,4350,53 Curzon Street,Toowoomba,,4350,Darling Downs South West,Groom,Toowoomba North,Toowoomba (R),Toowoomba - East,317011457,Inner Regional Australia,,,,0.00,,,Non-State,Catholic,151.973852,-27.558959
5455,Matthew Flinders Anglican College (Buderim),Non-State School,Open,,,Prep Year,Year 12,Principal,,,www.mfac.edu.au,(07) 5477 3200,,(07) 5445 1703,,Stringybark Road,Buderim,4556,1-47 Stringybark Road,Buderim,,4556,North Coast,Fairfax,Buderim,Sunshine Coast (R),Buderim - South,316011414,Major Cities of Australia,,,,0.00,,,Non-State,Independent,153.059226,-26.698811
A900,"Mawarra Independent School (Kybong) ",Non-State School,Open,,,Prep Year,Year 10,Principal,,,,,,,,899 - 967 Old Bruce Highway,Kybong,4570,899 - 967 Old Bruce Highway,Kybong,,4570,North Coast,Wide Bay,Gympie,Gympie (R),Gympie Region,319031514,Inner Regional Australia,,,,0.00,,,Non-State,Independent,152.705450,-26.261180
9961,McAuley College (Beaudesert),Non-State School,Open,,,Year 7,Year 11,Principal,,,www.mcauley.qld.edu.au,(07) 5542 3000,,,,30 Oakland Way,Beaudesert,4285,PO Box 36,Beaudesert,,4285,South East,Wright,Scenic Rim,Scenic Rim (R),Beaudesert,311011305,Inner Regional Australia,,,,0.00,,,Non-State,Catholic,153.011894,-27.989797
A847,"Men of Business Academy ",Non-State School,Open,,,Year 11,Year 12,Principal,,,,,,,,5 Nerang Road,Southport,4215,5 Nerang Road,,,4215,South East,Moncrieff,Southport,Gold Coast (C),Southport - North,309091540,Major Cities of Australia,,,,0.00,,,Non-State,Independent,153.415580,-27.966550
5412,Mercy College (Mackay),Non-State School,Open,,,Year 7,Year 10,Principal,,,www.mercymackay.qld.edu.au,(07) 4969 4199,,(07) 4969 4189,,2 Penn Street,Mackay,4740,PO Box 5646,Mackay,,4740,Central Queensland,Dawson,Mackay,Mackay (R),South Mackay,312021356,Inner Regional Australia,,,,0.00,,,Non-State,Catholic,149.183164,-21.154898
B027,Ming-De International School Toowoomba (Westbrook),Non-State School,Open,,,Prep Year,Year 4,Principal,,,www.ming-de.qld.edu.au,,,,,48 Althaus Road,Westbrook,4350,48 Althaus Road,Westbrook,,4350,Darling Downs South West,Groom,Condamine,Toowoomba (R),Toowoomba - West,317011458,Inner Regional Australia,,,,,,,Non-State,Independent,151.832232,-27.616497
5533,Montessori International College (Forest Glen),Non-State School,Open,,,Prep Year,Year 12,Principal,,,www.montessori.qld.edu.au,(07) 5445 3483,,(07) 5445 3937,,880-932 Maroochydore Road,Forest Glen,4556,PO Box 7309,Sippy Downs,,4556,North Coast,Fairfax,Ninderry,Sunshine Coast (R),Diddillibah - Rosemount,316071546,Major Cities of Australia,,,,0.00,,,Non-State,Independent,153.007562,-26.671159
A055,Montessori Noosa (Sunshine Beach),Non-State School,Open,,,Year 1,Year 8,Principal,,,www.montessorinoosa.qld.edu.au,0423 655 519,,,,2 Bicentennial Drive,Sunshine Beach,4567,2 Bicentennial Drive,Sunshine Beach,,4567,North Coast,Wide Bay,Noosa,Noosa (S),Sunshine Beach,316051437,Major Cities of Australia,,,,0.00,,,Non-State,Independent,153.099222,-26.405081
2478,"Moreton Bay Boys' College (Manly West) ",Non-State School,Open,,,Prep Year,Year 12,Principal,,,www.mbbc.qld.edu.au,(07) 3906 9444,N,(07) 3906 9400,,258-302 Manly Road,Manly West,4179,PO Box 80,Wynnum,,4178,Metropolitan,Bonner,Lytton,Brisbane (C),Manly West,301031016,Major Cities of Australia,,,,0.00,,,Non-State,Independent,153.172426,-27.470726
5551,Moreton Bay College (Manly West),Non-State School,Open,,,Prep Year,Year 12,Principal,,,www.mbc.qld.edu.au,(07) 3390 8555,N,(07) 3390 8919,,450 Wondall Road,Manly West,4179,PO Box 84,Wynnum,,4178,Metropolitan,Bonner,Lytton,Brisbane (C),Manly West,301031016,Major Cities of Australia,,,,0.00,,,Non-State,Independent,153.150270,-27.469844
5265,Mother of Good Counsel School (Cairns North),Non-State School,Open,,,Prep Year,Year 6,Principal,,,www.mogc.qld.edu.au,(07) 4053 6133,,(07) 4053 6433,,394 Sheridan Street,Cairns North,4870,PO Box 22N,North Cairns,,4870,Far North Queensland,Leichhardt,Cairns,Cairns (R),Cairns City,306021145,Outer Regional Australia,,,,0.00,,,Non-State,Catholic,145.755830,-16.899406
6142,Mother Teresa Primary School (Ormeau),Non-State School,Open,,,Prep Year,Year 6,Principal,,,www.motherteresa.qld.edu.au,(07) 5549 5000,,(07) 5549 5001,,169 Eggersdorf Road,Ormeau,4208,169 Eggersdorf Road,Ormeau,,4208,South East,Fadden,Coomera,Gold Coast (C),Ormeau - Yatala,309071255,Major Cities of Australia,,,,0.00,,,Non-State,Catholic,153.272628,-27.782420
5353,Mount Alvernia College (Kedron),Non-State School,Open,,,Year 7,Year 12,Principal,,,www.mta.qld.edu.au,(07) 3357 6000,N,(07) 3857 2231,,82 Cremorne Road,Kedron,4031,82 Cremorne Road,Kedron,,4031,Metropolitan,Lilley,Stafford,Brisbane (C),Kedron - Gordon Park,302021031,Major Cities of Australia,,,,0.00,,,Non-State,Catholic,153.027404,-27.405534
6606,Mount Isa Flexible Learning Centre (Sunset),Non-State School,Open,,,Year 7,Year 12,Principal,,,www.ereafsn.edu.au,(07) 3327 2288,,(07) 3327 2217,,74 Abel Smith Parade,Sunset,4825,PO Box 2691,Mount Isa,,4825,North Queensland,Kennedy,Traeger,Mount Isa (C),Mount Isa,315021405,Remote Australia,,,,0.00,,,Non-State,Catholic,139.510772,-20.712696
5438,"Mount St Bernard College (Broadway St, Herberton)",Non-State School,Open,,,Year 7,Year 12,Principal,,,www.msb.qld.edu.au,(07) 4096 1444,,(07) 4096 2509,,15 Broadway Street,Herberton,4887,PO Box 14,Herberton,,4887,Far North Queensland,Kennedy,Hill,Tablelands (R),Herberton,306051167,Outer Regional Australia,,,,0.00,,,Non-State,Catholic,145.382626,-17.379338
5001,Mt Maria College - Petrie (Petrie),Non-State School,Open,,,Year 7,Year 12,Principal,,,www.mmcp.qld.edu.au,(07) 3285 5500,N,(07) 3285 5091,,Armstrong Street,Petrie,4502,PO Box 130,Petrie,,4502,North Coast,Dickson,Kurwongbah,Moreton Bay (R),Petrie,314031393,Major Cities of Australia,,,,0.00,,,Non-State,Catholic,152.977951,-27.265677
5651,Mt Maria College (Mitchelton),Non-State School,Open,,,Year 7,Year 12,Principal,,,www.mtmaria.com.au,(07) 3550 3400,,(07) 3355 1898,,54 Prospect Road,Mitchelton,4053,PO Box 194,Everton Park,,4053,Metropolitan,Ryan,Everton,Brisbane (C),Mitchelton,304041101,Major Cities of Australia,,,,0.00,,,Non-State,Catholic,152.977479,-27.411487
5355,Mt St Michael's College (Ashgrove),Non-State School,Open,,,Year 7,Year 12,Principal,,,www.msm.qld.edu.au,(07) 3858 4222,N,(07) 3858 4299,,67 Elimatta Drive,Ashgrove,4060,PO Box 208,Ashgrove,,4060,Metropolitan,Brisbane,Cooper,Brisbane (C),Ashgrove,305041132,Major Cities of Australia,,,,0.00,,,Non-State,Catholic,152.988161,-27.444789
5591,Mueller College (Rothwell),Non-State School,Open,,,Prep Year,Year 12,Head of College,,,www.mueller.qld.edu.au,(07) 3897 2990,,(07) 3204 0404,,75 Morris Road,Rothwell,4022,PO Box 487,Redcliffe,,4020,North Coast,Petrie,Murrumba,Moreton Bay (R),Rothwell - Kippa-Ring,313051380,Major Cities of Australia,,,,0.00,,,Non-State,Independent,153.061258,-27.212660
A684,Mungalla Silver Lining School (Mutarnee),Non-State School,Open,,,Year 8,Year 12,Principal,,,www.silverlining.org.au/our-schools,0413 356 630,,,,Spiegelhauer Road,Mutarnee,4816,Po Box 517,Spring Hill,,4000,North Queensland,Kennedy,Hinchinbrook,Townsville (C),Northern Beaches,318021486,Outer Regional Australia,,,,0.00,,,Non-State,Independent,146.288610,-18.968750
6137,Music Industry College (Fortitude Valley),Non-State School,Open,,,Year 11,Year 12,Principal,,,www.mic.org.au,(07) 3852 3074,,(07) 3041 6570,,38 Berwick Street,Fortitude Valley,4006,PO Box 943,Fortitude Valley,,4006,Metropolitan,Brisbane,McConnel,Brisbane (C),Fortitude Valley,305011106,Major Cities of Australia,,,,0.00,,,Non-State,Independent,153.036966,-27.458860
B006,My Independent School (Beerwah),Non-State School,Open,,,Year 7,Year 10,Principal,,,mis.qld.edu.au,(07) 5494 2352,,,,28 Simpson Street,Beerwah,4519,PO Box 712,Maleny,,4552,North Coast,Fisher,Caloundra,Sunshine Coast (R),Beerwah,316061439,Inner Regional Australia,,,,,,,Non-State,Independent,152.957620,-26.855435
5886,Nambour Christian College (Woombye),Non-State School,Open,,,Prep Year,Year 12,Principal,,,www.ncc.qld.edu.au,(07) 5451 3333,,(07) 5335 1624,,2 McKenzie Road,Woombye,4559,PO Box 500,Nambour,,4560,North Coast,Fairfax,Nicklin,Sunshine Coast (R),Nambour,316071548,Major Cities of Australia,,,,0.00,,,Non-State,Independent,152.961637,-26.643909
A822,"Newman Catholic College (Smithfield) ",Non-State School,Open,,,Year 7,Year 7,Principal,,,www.newman.qld.edu.au,(07) 4281 6790,,,,Panguna Street,Smithfield,4878,Panguna Street,Smithfield,,4878,Far North Queensland,Leichhardt,Barron River,Cairns (R),Trinity Beach - Smithfield,306011142,Outer Regional Australia,,,,,,,Non-State,Catholic,145.691890,-16.818356
5303,Noosa Christian College (Cooroy),Non-State School,Open,,,Prep Year,Year 12,Principal,,,www.noosacc.qld.edu.au,(07) 5447 7808,,(07) 5447 7660,,20 Cooroy Belli Creek Road,Cooroy,4563,20 Cooroy Belli Creek Road,Cooroy,,4563,North Coast,Wide Bay,Nicklin,Noosa (S),Noosa Hinterland,316081549,Inner Regional Australia,,,,0.00,,,Non-State,Independent,152.903924,-26.427873
5638,Noosa Flexible Learning Centre (Sunshine Beach),Non-State School,Open,,,Year 7,Year 12,Principal,,,www.ereafsn.edu.au,(07) 3327 2288,,(07) 3327 2217,,2 Girraween Court,Sunshine Beach,4567,"Youth Plus, Flexi Schools Network",PO Box 498,Red Hill,4059,North Coast,Wide Bay,Noosa,Noosa (S),Sunshine Beach,316051437,Major Cities of Australia,,,,0.00,,,Non-State,Catholic,153.100729,-26.403168
0270,Noosa Pengari Steiner School (Doonan),Non-State School,Open,,,Prep Year,Year 12,Director,,,www.noosasteiner.qld.edu.au,(07) 5471 0199,,(07) 5471 0999,,86 Nyell Road,Doonan,4562,86 Nyell Road,Doonan,,4562,North Coast,Fairfax,Ninderry,Sunshine Coast (R),Noosa Hinterland,316081549,Major Cities of Australia,,,,0.00,,,Non-State,Independent,153.030650,-26.452141
5476,Northpine Christian College (Dakabin),Non-State School,Open,,,Prep Year,Year 12,Principal,,,www.northpine.qld.edu.au,(07) 3204 6511,,(07) 3886 1405,,29 Hughes Road East,Dakabin,4503,PO Box 33,Kallangur,,4503,North Coast,Longman,Murrumba,Moreton Bay (R),Dakabin - Kallangur,314021388,Major Cities of Australia,,,,0.00,,,Non-State,Independent,152.985045,-27.221076
5578,Northside Christian College (Everton Park),Non-State School,Open,,,Prep Year,Year 12,Principal,,,www.northside.qld.edu.au,(07) 3353 1266,,(07) 3353 4628,,151 Flockton Street,Everton Park,4053,PO Box 599,Everton Park,,4053,Metropolitan,Lilley,Everton,Brisbane (C),McDowall,302011026,Major Cities of Australia,,,,0.00,,,Non-State,Independent,152.990531,-27.394221
A016,Ohana College (Parkinson),Non-State School,Open,,,Year 7,Year 12,Executive Principal,,,www.tsa.qld.edu.au,0417525073,,,Level 3,61 Sandstone Place,Parkinson,4115,PO Box 279,Browns Plains,,4118,Metropolitan,Rankin,Algester,Brisbane (C),Parkinson - Drewvale,303051075,Major Cities of Australia,,,,0.00,,,Non-State,Independent,153.036823,-27.655649
2421,"OneSchool Global QLD (Wakerley) ",Non-State School,Open,,,Year 3,Year 12,Principal,,,www.oneschoolglobal.com,1300 378 406,,(07) 3390 7978,,190 Ingleston Road,Wakerley,4154,PO Box 3422,Tingalpa DC,,4173,Metropolitan,Bonner,Chatsworth,Brisbane (C),Wakerley,301031019,Major Cities of Australia,,,,0.00,,,Non-State,Independent,153.141793,-27.485275
A929,"Ontrack College Emerald (41 Capricorn H - Emerald) ",Non-State School,Open,,,Year 7,Year 10,Principal,,,,0437 563 236,,,,41 Capricorn Highway,Emerald,4720,41 Capricorn Highway,Emerald,,4720,Central Queensland,Flynn,Gregory,Central Highlands (R),Emerald,308011192,Outer Regional Australia,,,,,,,Non-State,Independent,148.192715,-23.542800
5796,Ormiston College (Ormiston),Non-State School,Open,,,Prep Year,Year 12,Headmaster,,,www.ormistoncollege.com,(07) 3821 8999,N,(07) 3821 1311,,97 Dundas Street West,Ormiston,4160,PO Box 1835,Cleveland DC,,4163,South East,Bowman,Oodgeroo,Redland (C),Ormiston,301021008,Major Cities of Australia,,,,0.00,,,Non-State,Independent,153.246879,-27.515347
5267,Our Lady Help of Christians School (Earlville),Non-State School,Open,,,Prep Year,Year 6,Principal,,,www.olhoc.qld.edu.au,(07) 4054 2566,,(07) 4054 2426,,18 Balaclava Road,Earlville,4870,18 Balaclava Road,Earlville,,4870,Far North Queensland,Leichhardt,Cairns,Cairns (R),Earlville - Bayview Heights,306021146,Outer Regional Australia,,,,0.00,,,Non-State,Catholic,145.737137,-16.943033
5024,Our Lady Help of Christians School (Hendra),Non-State School,Open,,,Prep Year,Year 6,Principal,,,www.olhchendra.qld.edu.au,(07) 3268 3070,N,(07) 3216 4962,,23 Bowman Street,Hendra,4011,23 Bowman Street,Hendra,,4011,Metropolitan,Brisbane,Clayfield,Brisbane (C),Hendra,305031125,Major Cities of Australia,,,,0.00,,,Non-State,Catholic,153.066736,-27.420797
5026,Our Lady of Dolours School (Mitchelton),Non-State School,Open,,,Prep Year,Year 6,Principal,,,www.ourladyofdolours.qld.edu.au,(07) 3355 7763,N,(07) 3855 2641,,2 Willcocks Street,Mitchelton,4053,2 Willcocks Street,Mitchelton,,4053,Metropolitan,Ryan,Ferny Grove,Brisbane (C),Mitchelton,304041101,Major Cities of Australia,,,,0.00,,,Non-State,Catholic,152.974854,-27.414310
5027,Our Lady of Fatima Primary School (Acacia Ridge),Non-State School,Open,,,Prep Year,Year 6,Principal,,,www.ourladyoffatima.qld.edu.au,(07) 3275 1152,,(07) 3216 7946,,350 Mortimer Road,Acacia Ridge,4110,PO Box 420,Acacia Ridge,,4110,Metropolitan,Moreton,Algester,Brisbane (C),Rocklea - Acacia Ridge,303051076,Major Cities of Australia,,,,0.00,,,Non-State,Catholic,153.022752,-27.579185
5117,Our Lady of Good Counsel School (Gatton),Non-State School,Open,,,Prep Year,Year 6,Principal,,,www.olgcgatton.qld.edu.au,(07) 5462 2675,N,(07) 5462 4595,,20 Maitland Street,Gatton,4343,PO Box 297,Gatton,,4343,Darling Downs South West,Wright,Lockyer,Lockyer Valley (R),Gatton,317011448,Inner Regional Australia,,,,0.00,,,Non-State,Catholic,152.271660,-27.558237
5236,Our Lady of Lourdes Primary School (Ingham),Non-State School,Open,,,Prep Year,Year 6,Principal,,,www.olltsv.catholic.edu.au,(07) 4776 2719,,(07) 4776 3882,,18 Abbott Street,Ingham,4850,PO Box 1553,Ingham,,4850,North Queensland,Kennedy,Hinchinbrook,Hinchinbrook (S),Ingham,318011464,Outer Regional Australia,,,,0.00,,,Non-State,Catholic,146.159262,-18.653896
5028,Our Lady of Lourdes Primary School (Sunnybank),Non-State School,Open,,,Prep Year,Year 6,Principal,,,www.ourladyoflourdes.qld.edu.au,(07) 3345 0700,N,(07) 3344 3598,,Shearwin Street,Sunnybank,4109,PO Box 439,Sunnybank,,4109,Metropolitan,Moreton,Toohey,Brisbane (C),Sunnybank,303061079,Major Cities of Australia,,,,0.00,,,Non-State,Catholic,153.061996,-27.581674
5153,Our Lady of Lourdes Primary School (Toowoomba),Non-State School,Open,,,Prep Year,Year 6,Principal,,,www.ololtwb.catholic.edu.au,(07) 4634 1922,N,(07) 4634 4824,,2 Ascot Street,Toowoomba,4350,2 Ascot Street,Toowoomba,,4350,Darling Downs South West,Groom,Toowoomba North,Toowoomba (R),Newtown (Qld),317011453,Inner Regional Australia,,,,0.00,,,Non-State,Catholic,151.932610,-27.557014
5030,Our Lady of Mount Carmel School (Coorparoo),Non-State School,Open,,,Prep Year,Year 6,Principal,,,www.mtcarmelcoorparoo.qld.edu.au,(07) 3397 7125,,(07) 3847 2792,,Norfolk Street,Coorparoo,4151,Norfolk Road,Coorparoo,,4151,Metropolitan,Griffith,Greenslopes,Brisbane (C),Coorparoo,303021053,Major Cities of Australia,,,,0.00,,,Non-State,Catholic,153.062631,-27.502700
5031,Our Lady of the Angels' School (Wavell Heights),Non-State School,Open,,,Prep Year,Year 6,Principal,,,www.olawavellheights.qld.edu.au,(07) 3359 9198,,(07) 3359 8068,,30 Warraba Avenue,Wavell Heights,4012,Warraba Avenue,Wavell Heights,,4012,Metropolitan,Lilley,Stafford,Brisbane (C),Wavell Heights,302021034,Major Cities of Australia,,,,0.00,,,Non-State,Catholic,153.040311,-27.393600
5032,Our Lady of the Assumption School (Enoggera),Non-State School,Open,,,Prep Year,Year 6,Principal,,,www.olaenoggera.qld.edu.au,(07) 3355 2388,N,(07) 3354 2273,,9 Hurdcotte Street,Enoggera,4051,PO Box 140,Alderley,,4051,Metropolitan,Ryan,Everton,Brisbane (C),Enoggera,304041098,Major Cities of Australia,,,,0.00,,,Non-State,Catholic,152.990302,-27.416821
5137,Our Lady of the Rosary School (Caloundra),Non-State School,Open,,,Prep Year,Year 6,Principal,,,www.olr.qld.edu.au,(07) 5491 4522,N,(07) 5492 6225,,Alfred Street,Caloundra,4551,PO Box 149,Moffat Beach,,4551,North Coast,Fisher,Caloundra,Sunshine Coast (R),Moffat Beach - Battery Hill,316021422,Major Cities of Australia,,,,0.00,,,Non-State,Catholic,153.143746,-26.797257
5033,Our Lady of the Rosary School (Kenmore),Non-State School,Open,,,Prep Year,Year 6,Principal,,,www.olrkenmore.qld.edu.au,(07) 3378 2412,N,(07) 3878 3160,,1 Kenmore Road,Kenmore,4069,1 Kenmore Road,Kenmore,,4069,Metropolitan,Ryan,Moggill,Brisbane (C),Kenmore,304021090,Major Cities of Australia,,,,0.00,,,Non-State,Catholic,152.937323,-27.511198
5034,Our Lady of the Sacred Heart Catholic Primary School (Darra),Non-State School,Open,,,Prep Year,Year 6,Principal,,,www.olshdarra.qld.edu.au,(07) 3375 4519,,(07) 3375 3867,,115 Darra Station Road,Darra,4076,PO Box 3076,Darra,,4076,Metropolitan,Oxley,Mount Ommaney,Brisbane (C),Darra - Sumner,310011271,Major Cities of Australia,,,,0.00,,,Non-State,Catholic,152.952203,-27.568091
5192,Our Lady of the Sacred Heart Catholic Primary School (Springsure),Non-State School,Open,,,Prep Year,Year 6,Principal,,,www.olshsrok.catholic.edu.au,(07) 4984 1525,,(07) 4984 1353,,Gap Street,Springsure,4722,Gap Street,Springsure,,4722,Central Queensland,Flynn,Gregory,Central Highlands (R),Central Highlands - West,308011191,Remote Australia,,,,0.00,,,Non-State,Catholic,148.092636,-24.117027
5268,Our Lady of the Sacred Heart School Waiben (Thursday Island),Non-State School,Open,,,Prep Year,Year 6,Principal,,,www.olsh.qld.edu.au/,(07) 4069 2203,,(07) 4069 1645,,Normanby Street,Thursday Island,4875,PO Box 544,Thursday Island,,4875,Far North Queensland,Leichhardt,Cook,Torres (S),Torres,315011401,Very Remote Australia,,,,0.00,,,Non-State,Catholic,142.215733,-10.583081
5189,Our Lady of the Southern Cross College (Dalby),Non-State School,Open,,,Prep Year,Year 12,Principal,,,www.dalby.catholic.edu.au,(07) 4672 4111,,(07) 4672 4112,,2 Nicholson Street,Dalby,4405,2 Nicholson Street,Dalby,,4405,Darling Downs South West,Maranoa,Warrego,Western Downs (R),Wambo,307021183,Inner Regional Australia,,,,0.00,,,Non-State,Catholic,151.267671,-27.171856
5035,Our Lady of the Way School (Petrie),Non-State School,Open,,,Prep Year,Year 6,Principal,,,www.ourladyoftheway.qld.edu.au,(07) 3285 2977,N,(07) 3285 5333,,38 Armstrong Street,Petrie,4502,38 Armstrong Street,Petrie,,4502,North Coast,Dickson,Kurwongbah,Moreton Bay (R),Petrie,314031393,Major Cities of Australia,,,,0.00,,,Non-State,Catholic,152.979183,-27.266613
5413,Our Lady's Catholic Primary School (Longreach),Non-State School,Open,,,Prep Year,Year 6,Principal,,,www.oll.rok.catholic.edu.au,(07) 4658 3055,N,(07) 4658 3994,,85 Eagle Street,Longreach,4730,PO Box 168,Longreach,,4730,Central Queensland,Maranoa,Gregory,Longreach (R),Longreach,315031412,Very Remote Australia,,,,0.00,,,Non-State,Catholic,144.251106,-23.439452
5356,Our Lady's College (Annerley),Non-State School,Open,,,Year 7,Year 12,Principal,,,www.ourladyscollege.qld.edu.au,(07) 3426 8000,,(07) 3848 8059,,15 Chester Road,Annerley,4103,15 Chester Road,Annerley,,4103,Metropolitan,Moreton,Miller,Brisbane (C),Annerley,303021052,Major Cities of Australia,,,,0.00,,,Non-State,Catholic,153.031991,-27.515692
2330,Pacific Lutheran College (Meridan Plains),Non-State School,Open,,,Prep Year,Year 12,Principal,,,www.pacificlutheran.qld.edu.au,(07) 5436 7300,N,(07) 5436 7301,,Woodlands Boulevard,Meridan Plains,4551,PO Box 992,Caloundra,,4551,North Coast,Fisher,Kawana,Sunshine Coast (R),Caloundra - West,316021420,Major Cities of Australia,,,,0.00,,,Non-State,Independent,153.105330,-26.756543
5300,Padua College (Kedron),Non-State School,Open,,,Year 5,Year 12,Rector,,,www.padua.qld.edu.au,(07) 3857 9999,,(07) 3857 9988,,80 Turner Road,Kedron,4031,PO Box 111,Kedron,,4031,Metropolitan,Lilley,Stafford,Brisbane (C),Kedron - Gordon Park,302021031,Major Cities of Australia,,,,0.00,,,Non-State,Catholic,153.025124,-27.407491
2327,Parklands Christian College (Park Ridge),Non-State School,Open,,,Prep Year,Year 12,Principal,,,www.parklands.qld.edu.au,(07) 3380 4200,,(07) 3802 0711,,11 Hillcrest Road,Park Ridge,4125,11 Hillcrest Road,Park Ridge,,4125,South East,Forde,Logan,Logan (C),Boronia Heights - Park Ridge,311031311,Major Cities of Australia,,,,0.00,,,Non-State,Independent,153.035613,-27.715770
5772,Peace Lutheran College (Kamerunga),Non-State School,Open,,,Prep Year,Year 12,Principal,,,www.plc.qld.edu.au,(07) 4039 9000,,(07) 4039 1623,,Cowley Street,Kamerunga,4870,PO Box 72F,Freshwater,,4870,Far North Queensland,Leichhardt,Barron River,Cairns (R),Redlynch,306011141,Outer Regional Australia,,,,0.00,,,Non-State,Independent,145.689758,-16.878273
5762,Peace Lutheran Primary School (Gatton),Non-State School,Open,,,Prep Year,Year 6,Principal,,,www.peacelps.qld.edu.au,(07) 5462 0700,N,(07) 5462 0755,,36 East Street,Gatton,4343,36 East Street,Gatton,,4343,Darling Downs South West,Wright,Lockyer,Lockyer Valley (R),Gatton,317011448,Inner Regional Australia,,,,0.00,,,Non-State,Independent,152.274393,-27.557549
2415,Peregian Beach College (Peregian Beach),Non-State School,Open,,,Prep Year,Year 12,Principal,,,www.pbc.qld.edu.au,(07) 5448 1722,,(07) 5448 3606,,41 Old Emu Mountain Road,Peregian Beach,4573,PO Box 101,Peregian Beach,,4573,North Coast,Wide Bay,Ninderry,Sunshine Coast (R),Noosa Hinterland,316081549,Major Cities of Australia,,,,0.00,,,Non-State,Independent,153.068088,-26.479319
5793,Pine Community School (Arana Hills),Non-State School,Open,,,Prep Year,Year 6,Principal,,,www.pinecommunityschool.org,(07) 3851 1496,N,(07) 3851 3877,,123 Bunya Road,Arana Hills,4054,PO Box 65,Ferny Hills,,4055,Metropolitan,Dickson,Everton,Moreton Bay (R),The Hills District,314011386,Major Cities of Australia,,,,0.00,,,Non-State,Independent,152.962946,-27.387462
A909,Pinnacle Academic College (Kallangur),Non-State School,Open,,,Year 1,Year 6,Principal,,,www.pinnacleacademiccollege.com.au,0416 466 443,,,,10 Narangba Road,Kallangur,4503,10 Narangba Road,Kallangur,,4503,North Coast,Dickson,Murrumba,Moreton Bay (R),Dakabin - Kallangur,314021388,Major Cities of Australia,,,,0.00,,,Non-State,Independent,152.981461,-27.253211
5767,Prince of Peace Lutheran College (Rogers Pde West - Everton Hills),Non-State School,Open,,,Prep Year,Year 6,Head of College,,,www.princeofpeace.qld.edu.au,(07) 3872 5700,,(07) 3872 5783,,20 Rogers Parade West,Everton Park,4053,20 Rogers Parade West,Everton Hills,,4053,Metropolitan,Lilley,Everton,Brisbane (C),Everton Park,302011025,Major Cities of Australia,,,,0.00,,,Non-State,Independent,152.977933,-27.392318
5038,"Queen of Apostles Primary School (Thuruna St, Stafford)",Non-State School,Open,,,Year 3,Year 6,Principal,,,www.qofa.qld.edu.au,(07) 3352 9200,,(07) 3856 0489,,10 Thuruna Street,Stafford,4053,10 Thuruna Street,Stafford,,4053,Metropolitan,Lilley,Stafford,Brisbane (C),Stafford,302021032,Major Cities of Australia,,,,0.00,,,Non-State,Catholic,153.008083,-27.404400
5970,Radiant Life College (East Innisfail),Non-State School,Open,,,Prep Year,Year 8,Principal,,,www.radiantlife.qld.edu.au,(07) 4061 7022,,,,1 Riley Street,East Innisfail,4860,1 Riley Street,East Innisfail,,4860,Far North Queensland,Kennedy,Hill,Cassowary Coast (R),Innisfail,306031159,Outer Regional Australia,,,,0.00,,,Non-State,Independent,146.034800,-17.539575
5781,Redeemer Lutheran College (Rochedale),Non-State School,Open,,,Prep Year,Year 12,Principal,,,www.redeemer.com.au,(07) 3340 8888,N,(07) 3340 8800,,745 Rochedale Road,Rochedale,4123,PO Box 6090,Upper Mount Gravatt,,4122,Metropolitan,Bonner,Mansfield,Brisbane (C),Rochedale - Burbank,303031064,Major Cities of Australia,,,,0.00,,,Non-State,Independent,153.124132,-27.585276
5765,"Redeemer Lutheran College, Biloela (Biloela)",Non-State School,Open,,,Prep Year,Year 12,Principal,,,www.redeemer.qld.edu.au,(07) 4992 1813,,(07) 4992 1455,,2 Collard Street,Biloela,4715,PO Box 325,Biloela,,4715,Central Queensland,Flynn,Callide,Banana (S),Biloela,308041529,Outer Regional Australia,,,,0.00,,,Non-State,Independent,150.519030,-24.401458
5801,Redlands College (Wellington Point),Non-State School,Open,,,Prep Year,Year 12,Principal,,,www.redlands.qld.edu.au,(07) 3286 0222,,(07) 3207 3799,,38 Anson Road,Wellington Point,4160,38 Anson Road,Wellington Point,,4160,South East,Bowman,Oodgeroo,Redland (C),Wellington Point,301011006,Major Cities of Australia,,,,0.00,,,Non-State,Independent,153.232781,-27.492634
9948,Redwood College (Burpengary),Non-State School,Open,,,Prep Year,Year 12,Principal,,,www.redwoodcollege.qld.edu.au,(07) 5405 1718,,,,6 Gleeson Road,Burpengary,4505,PO Box 3102,Caboolture,,4510,North Coast,Longman,Kurwongbah,Moreton Bay (R),Burpengary,313041372,Major Cities of Australia,,,,,,,Non-State,Independent,152.966198,-27.137961
5593,Rivermount College (Yatala),Non-State School,Open,,,Prep Year,Year 12,Principal,,,www.rivermount.net,(07) 3287 0000,,(07) 3807 4670,,Rivermount Drive,Yatala,4207,PO Box 693,Beenleigh,,4207,South East,Forde,Coomera,Gold Coast (C),Ormeau - Yatala,309071255,Major Cities of Australia,,,,0.00,,,Non-State,Independent,153.200401,-27.753911
5487,Riverside Adventist School (Aitkenvale),Non-State School,Open,,,Prep Year,Year 6,Principal,,,www.riversideadventist.qld.edu.au,(07) 4779 2291,N,(07) 4779 5995,,59 Leopold Street,Aitkenvale,4814,PO Box 1062,Aitkenvale,,4814,North Queensland,Herbert,Mundingburra,Townsville (C),Aitkenvale,318021467,Outer Regional Australia,,,,0.00,,,Non-State,Independent,146.767745,-19.305621
5860,Riverside Christian College (Maryborough),Non-State School,Open,,,Prep Year,Year 12,Principal,,,www.riverside.qld.edu.au,(07) 4123 1031,N,(07) 4123 2545,,23 Royle Street,Maryborough,4650,PO Box 2069,Maryborough,,4650,North Coast,Wide Bay,Maryborough,Fraser Coast (R),Maryborough (Qld),319051524,Inner Regional Australia,,,,0.00,,,Non-State,Independent,152.664530,-25.517794
9803,Rockhampton Flexible Learning Centre (Rockhampton),Non-State School,Open,,,Year 7,Year 12,Principal,,,www.ereafsn.edu.au,(07) 3447 1002,,,,210 Upper Dawson Road,Rockhampton,4700,PO Box 8592,Allenstown,,4700,Central Queensland,Capricornia,Rockhampton,Rockhampton (R),The Range - Allenstown,308031222,Inner Regional Australia,,,,0.00,,,Non-State,Catholic,150.500725,-23.401298
5505,Rockhampton Girls Grammar School (Rockhampton),Non-State School,Open,,,Prep Year,Year 12,Principal,,,www.rggs.qld.edu.au,(07) 4930 0900,,(07) 4922 4809,,Cnr Denham and Agnes Streets,Rockhampton,4700,PO Box 776,Rockhampton,,4700,Central Queensland,Capricornia,Rockhampton,Rockhampton (R),The Range - Allenstown,308031222,Inner Regional Australia,,,,0.00,,,Non-State,Independent,150.495851,-23.388595
5331,Ryan Catholic College (Kirwan),Non-State School,Open,,,Prep Year,Year 12,Principal,,,www.ryan.catholic.edu.au,(07) 4773 0100,,(07) 4773 3703,,59 Canterbury Road,Kirwan,4817,PO Box 97,Thuringowa Central,,4817,North Queensland,Herbert,Thuringowa,Townsville (C),Kirwan - West,318021482,Outer Regional Australia,,,,0.00,,,Non-State,Catholic,146.718867,-19.316149
5196,Sacred Heart Catholic Primary School (Yeppoon),Non-State School,Open,,,Prep Year,Year 6,Principal,,,www.shyrok.catholic.edu.au,(07) 4933 6288,N,(07) 4933 6470,,14 Barracuda Crescent,Yeppoon,4703,PO Box 241,Yeppoon,,4703,Central Queensland,Capricornia,Keppel,Livingstone (S),Yeppoon,308031223,Inner Regional Australia,,,,0.00,,,Non-State,Catholic,150.766262,-23.158487
5158,Sacred Heart Primary School (Cunnamulla),Non-State School,Open,,,Prep Year,Year 6,Principal,,,www.cunnamulla.catholic.edu.au,(07) 4655 1486,,(07) 4655 1400,,46 John Street,Cunnamulla,4490,PO Box 224,Cunnamulla,,4490,Darling Downs South West,Maranoa,Warrego,Paroo (S),Far South West,315031411,Very Remote Australia,,,,0.00,,,Non-State,Catholic,145.683247,-28.072540
5044,Sacred Heart Primary School (Sandgate),Non-State School,Open,,,Prep Year,Year 6,Principal,,,www.shssandgate.qld.edu.au,(07) 3269 3427,N,(07) 3269 3009,,92 Brighton Road,Sandgate,4017,92 Brighton Road,Sandgate,,4017,Metropolitan,Lilley,Sandgate,Brisbane (C),Sandgate - Shorncliffe,302041044,Major Cities of Australia,,,,0.00,,,Non-State,Catholic,153.067168,-27.317432
