Centre Code,Centre Name,Centre Type,Centre Status,Host Centre Code,Host Centre Name,Official Low Year Level,Official High Year Level,Officer In Charge Title,School Level Code,Show Holiday Date,Internet Site,Phone Number,Restrict Contact Outside Teaching Hours,Fax Number,Actual Address Line 1,Actual Address Line 2,Actual Address Line 3,Actual Address Post Code,Postal Address Line 1,Postal Address Line 2,Postal Address Line 3,Postal Address Post Code,Education Geographic Region,Federal Electorate,State Electorate,Local Government Area,Statistical Area Level2,Statistical Area Level2 Code,Remoteness Area,Enrolment Effective Date,All Student Count,Campus All Student Count,Early Childhood Registrations,Campus Early Childhood Registrations,ABN,Sector,Non-State Sector,Longitude,Latitude
0591,Abercorn State School,State School,Open,,,Prep Year,Year 6,Principal,01,08 August 2022,www.abercornss.eq.edu.au,(07) 4167 5190,Y,,,957 Wuruma Dam Road,Abercorn,4627,957 Wuruma Dam Road,Abercorn,,4627,Central Queensland,Flynn,Callide,North Burnett (R),Monto - Eidsvold,319021508,Outer Regional Australia,2022 February,20.00,,0.00,,22101246877,State,,151.127031,-25.135955
1275,Abergowrie State School,State School,Open,,,Early Childhood,Year 6,Principal,01,24 June 2022,www.abergowriess.eq.edu.au,(07) 4777 4672,N,(07) 4777 4686,,5 Venables Road,Abergowrie,4850,5 Venables Road,Abergowrie,,4850,North Queensland,Kennedy,Hinchinbrook,Hinchinbrook (S),Ingham Region,318011465,Remote Australia,2022 February,13.00,,0.00,,87244066343,State,,145.883510,-18.474697
0025,Acacia Ridge State School,State School,Open,,,Early Childhood,Year 6,Principal,05,10 August 2022,www.acaciaridgess.eq.edu.au,(07) 3717 4111,N,(07) 3717 4100,,Nyngam Street,Acacia Ridge,4110,Nyngam Street,Acacia Ridge,,4110,Metropolitan,Moreton,Algester,Brisbane (C),Rocklea - Acacia Ridge,303051076,Major Cities of Australia,2022 February,314.00,,21.00,,99285094765,State,,153.016074,-27.579554
1983,Agnes Water State School,State School,Open,,,Prep Year,Year 6,Principal,03,26 May 2022,www.agneswaterss.eq.edu.au,(07) 4902 1333,N,,,1 Donohue Drive,Agnes Water,4677,PO Box 238,Agnes Water,,4677,North Coast,Flynn,Burnett,Gladstone (R),Agnes Water - Miriam Vale,308051530,Outer Regional Australia,2022 February,190.00,,0.00,,98271783313,State,,151.910560,-24.213972
0598,Airville State School,State School,Open,,,Prep Year,Year 6,Principal,01,22 June 2022,www.airvilless.eq.edu.au,(07) 4790 7333,N,(07) 4790 7300,,920 Old Clare Road,Airville,4807,MS 54,Ayr,,4807,North Queensland,Dawson,Burdekin,Burdekin (S),Burdekin,318011461,Outer Regional Australia,2022 February,6.00,,0.00,,17752636684,State,,147.347629,-19.655190
0801,Aitkenvale State School,State School,Open,,,Prep Year,Year 6,Principal,05,04 July 2022,www.aitkenvaless.eq.edu.au,(07) 4421 2333,N,,,67-85 Wotton Street,Aitkenvale,4814,PO Box 50,Aitkenvale,,4814,North Queensland,Herbert,Mundingburra,Townsville (C),Aitkenvale,318021467,Outer Regional Australia,2022 February,377.00,,0.00,,61019412758,State,,146.763058,-19.296785
2155,Albany Creek State High School,State High School,Open,,,Year 7,Year 12,Principal,07,08 August 2022,www.albanycreekshs.eq.edu.au,(07) 3325 6333,N,(07) 3325 6300,,Albany Forest Drive,Albany Creek,4035,PO Box 40,Albany Creek,,4035,Metropolitan,Dickson,Everton,Moreton Bay (R),Albany Creek,314011382,Major Cities of Australia,2022 February,1584.00,,0.00,,54535033957,State,,152.968606,-27.357634
0190,Albany Creek State School,State School,Open,,,Prep Year,Year 6,Principal,06,08 August 2022,www.albanycreekss.eq.edu.au,(07) 3264 0111,N,(07) 3264 0100,,696 Albany Creek Road,Albany Creek,4035,696 Albany Creek Road,Albany Creek,,4035,Metropolitan,Dickson,Everton,Moreton Bay (R),Albany Creek,314011382,Major Cities of Australia,2022 February,766.00,,0.00,,22367474023,State,,152.970666,-27.345860
1892,Albany Hills State School,State School,Open,,,Prep Year,Year 6,Principal,06,08 August 2022,www.albahillss.eq.edu.au,(07) 3264 0777,N,(07) 3264 0700,,Keong Road,Albany Creek,4035,PO Box 378,Albany Creek,,4035,Metropolitan,Dickson,Everton,Moreton Bay (R),Albany Creek,314011382,Major Cities of Australia,2022 February,841.00,,0.00,,63211059809,State,,152.972780,-27.360340
0038,Albert State School,State School,Open,,,Prep Year,Year 6,Principal,03,20 May 2022,www.albertss.eq.edu.au,(07) 4120 0888,N,(07) 4120 0800,,210-220 Albert Street,Maryborough,4650,210-220 Albert Street,Maryborough,,4650,North Coast,Wide Bay,Maryborough,Fraser Coast (R),Maryborough (Qld),319051524,Inner Regional Australia,2022 February,116.00,,0.00,,34314654106,State,,152.703888,-25.546785
2017,Aldridge State High School,State High School,Open,,,Year 7,Year 12,Principal,07,20 May 2022,www.aldridgeshs.eq.edu.au,(07) 4120 8444,N,(07) 4120 8400,,Boys Avenue,Maryborough,4650,PO Box 3061,Pallas Street,Maryborough,4650,North Coast,Wide Bay,Maryborough,Fraser Coast (R),Maryborough (Qld),319051524,Inner Regional Australia,2022 February,706.00,,0.00,,12686626457,State,,152.688545,-25.516557
1963,Alexandra Bay State School,State School,Open,,,Early Childhood,Year 6,Principal,01,18 July 2022,www.alexbayss.eq.edu.au,(07) 4098 9137,N,(07) 4098 9182,,Lot 1 Cape Tribulation Road,Diwan,4873,PMB 21,Cape Tribulation Road,Via Mossman,4873,Far North Queensland,Leichhardt,Cook,Douglas (S),Daintree,306041164,Remote Australia,2022 February,18.00,,1.00,,53750286398,State,,145.422250,-16.213862
2175,Alexandra Hills State High School,State High School,Open,,,Year 7,Year 12,Principal,08,08 August 2022,www.alexandrahillsshs.eq.edu.au,(07) 3820 1444,N,(07) 3820 1400,,Windemere Road,Alexandra Hills,4161,PO Box 234,Capalaba,,4157,South East,Bowman,Capalaba,Redland (C),Alexandra Hills,301011001,Major Cities of Australia,2022 February,1382.00,,0.00,,41363280419,State,,153.215428,-27.523768
0405,Alexandra Hills State School,State School,Open,,,Prep Year,Year 6,Principal,04,08 August 2022,www.alexandrahillsss.eq.edu.au,(07) 3820 0333,N,(07) 3820 0300,,12 Princeton Avenue,Alexandra Hills,4161,PO Box 5503,Alexandra Hills,,4161,South East,Bowman,Capalaba,Redland (C),Alexandra Hills,301011001,Major Cities of Australia,2022 February,198.00,,0.00,,60250447132,State,,153.221279,-27.518141
1866,Algester State School,State School,Open,,,Prep Year,Year 6,Principal,06,10 August 2022,www.algesterss.eq.edu.au,(07) 3712 5111,N,(07) 3712 5100,,19 Endiandra Street,Algester,4115,PO Box 5121,Algester,,4115,Metropolitan,Rankin,Algester,Brisbane (C),Algester,303051072,Major Cities of Australia,2022 February,956.00,,0.00,,70943736702,State,,153.031915,-27.615675
0155,Allenstown State School,State School,Open,,,Prep Year,Year 6,Principal,05,09 June 2022,www.allenstownss.eq.edu.au,(07) 4930 0111,N,(07) 4930 0100,,Upper Dawson Road,Allenstown,4700,PO Box 8444,Allenstown,,4700,Central Queensland,Capricornia,Rockhampton,Rockhampton (R),The Range - Allenstown,308031222,Inner Regional Australia,2022 February,360.00,,0.00,,47315850702,State,,150.502671,-23.391906
0773,Alligator Creek State School,State School,Open,,,Prep Year,Year 6,Principal,04,16 June 2022,www.alligatorcreekss.eq.edu.au,(07) 4964 9222,N,(07) 4956 4417,,50 Grasstree Road,Alligator Creek,4740,50 Grasstree Road,Alligator Creek,via Mackay,4740,Central Queensland,Capricornia,Mirani,Mackay (R),Sarina,312021352,Outer Regional Australia,2022 February,301.00,,0.00,,72800229502,State,,149.211559,-21.329398
0003,Allora P-10 State School,State School,Open,,,Prep Year,Year 10,Principal,04,04 February 2022,www.allorass.eq.edu.au,(07) 4666 7222,N,(07) 4666 7299,,21 Warwick Street,Allora,4362,PO Box 6,Allora,,4362,Darling Downs South West,Maranoa,Southern Downs,Southern Downs (R),Southern Downs - West,307031186,Inner Regional Australia,2022 February,218.00,,0.00,,34253365904,State,,151.986183,-28.036194
0430,Alloway State School,State School,Open,,,Prep Year,Year 6,Principal,02,26 May 2022,www.allowayss.eq.edu.au,(07) 4159 7352,N,(07) 4159 7508,,4334 Goodwood Road,Alloway,4670,4334 Goodwood Road,Bundaberg,,4670,North Coast,Hinkler,Burnett,Bundaberg (R),Bundaberg Region - South,319011499,Inner Regional Australia,2022 February,57.00,,0.00,,53628761154,State,,152.378285,-24.952136
0870,Aloomba State School,State School,Open,,,Prep Year,Year 6,Principal,02,15 July 2022,www.aloombass.eq.edu.au,(07) 4043 3888,N,(07) 4043 3800,,Nielsen Street,Aloomba,4871,c/- Post Office,Aloomba,,4871,Far North Queensland,Kennedy,Mulgrave,Cairns (R),Babinda,306031158,Outer Regional Australia,2022 February,83.00,,0.00,,32012442977,State,,145.831978,-17.109840
0517,Alpha State School,State School,Open,,,Prep Year,Year 10,Principal,03,18 May 2022,www.alphass.eq.edu.au,(07) 4987 0888,N,(07) 4987 0800,,Milton Street,Alpha,4724,11 Milton Street,Alpha,,4724,Central Queensland,Maranoa,Gregory,Barcaldine (R),Barcaldine - Blackall,315031408,Very Remote Australia,2022 February,47.00,,0.00,,34433161836,State,,146.642263,-23.650791
1719,Amamoor State School,State School,Open,,,Prep Year,Year 6,Principal,02,13 May 2022,www.amamoorss.eq.edu.au,(07) 5401 1333,N,,,2 Elizabeth Street,Amamoor,4570,c/- Post Office,Amamoor,,4570,North Coast,Wide Bay,Gympie,Gympie (R),Gympie Region,319031514,Inner Regional Australia,2022 February,62.00,,0.00,,61566823389,State,,152.673150,-26.346411
0115,Amberley District State School,State School,Open,,,Prep Year,Year 6,Principal,06,13 May 2022,www.amberleydistrictss.eq.edu.au,(07) 3280 3111,N,(07) 3288 0313,,37 Deebing Creek Road,Yamanto,4305,37 Deebing Creek Road,Yamanto,,4305,Metropolitan,Blair,Ipswich West,Ipswich (C),Churchill - Yamanto,310031285,Major Cities of Australia,2022 February,712.00,,0.00,,29071078038,State,,152.750141,-27.657490
1415,Ambrose State School,State School,Open,,,Early Childhood,Year 6,Principal,02,08 August 2022,www.ambrosess.eq.edu.au,(07) 4975 1165,Y,,,39 Gentle Annie Road,Ambrose,4695,39 Gentle Annie Road,Ambrose,,4695,Central Queensland,Flynn,Gladstone,Gladstone (R),Gladstone Hinterland,308051535,Outer Regional Australia,2022 February,71.00,,6.00,,79273424412,State,,150.921893,-23.786492
1629,Amiens State School,State School,Open,,,Prep Year,Year 6,Principal,02,28 January 2022,www.amiensss.eq.edu.au,(07) 4683 3177,N,(07) 4683 3220,,1337 Amiens Road,Amiens,4380,1337 Amiens Road,Amiens,,4380,Darling Downs South West,Maranoa,Southern Downs,Southern Downs (R),Stanthorpe Region,307031188,Outer Regional Australia,2022 February,16.00,,0.00,,41113139955,State,,151.812654,-28.594568
0474,Anakie State School,State School,Open,,,Early Childhood,Year 6,Principal,02,01 June 2022,www.anakiess.eq.edu.au,(07) 4981 1111,N,(07) 4985 4227,,Cook Street,The Gemfields,4702,PO Box 316,Sapphire,,4702,Central Queensland,Flynn,Gregory,Central Highlands (R),Central Highlands - West,308011191,Remote Australia,2022 February,66.00,,7.00,,99806429525,State,,147.745856,-23.554011
1572,Andergrove State School,State School,Open,,,Prep Year,Year 6,Principal,04,16 June 2022,www.andergrovess.eq.edu.au,(07) 4998 9333,N,,,Fernleigh Avenue,Andergrove,4740,PO Box 8289,Mount Pleasant,Mackay,4740,Central Queensland,Dawson,Mackay,Mackay (R),Andergrove - Beaconsfield,312021342,Inner Regional Australia,2022 February,326.00,,0.00,,88272471994,State,,149.188241,-21.086247
0440,Annandale State School,State School,Open,,,Prep Year,Year 6,Principal,06,04 July 2022,www.annandaless.eq.edu.au,(07) 4729 5111,N,(07) 4729 5100,,Cnr Oleander Street & Yolanda Drive,Annandale,4814,Cnr Oleander Street & Yolanda Drive,Annandale,,4814,North Queensland,Dawson,Mundingburra,Townsville (C),Annandale,318021468,Outer Regional Australia,2022 February,698.00,,0.00,,58488048743,State,,146.778441,-19.315285
1294,Applethorpe State School,State School,Open,,,Prep Year,Year 6,Principal,02,28 January 2022,www.applethorpess.eq.edu.au,(07) 4683 2203,N,(07) 4683 2542,,25576 New England Highway,Applethorpe,4378,25576 New England Highway,Applethorpe,,4378,Darling Downs South West,Maranoa,Southern Downs,Southern Downs (R),Stanthorpe Region,307031188,Outer Regional Australia,2022 February,62.00,,0.00,,77383988490,State,,151.955354,-28.612562
0312,Aramac State School,State School,Open,,,Early Childhood,Year 10,Principal,03,30 September 2022,www.aramacss.eq.edu.au,(07) 4651 3177,N,,,69 Porter Street,Aramac,4726,PO Box 92,Aramac,,4726,Central Queensland,Maranoa,Gregory,Barcaldine (R),Barcaldine - Blackall,315031408,Very Remote Australia,2022 February,58.00,,5.00,,14926232593,State,,145.242684,-22.974429
1266,Aratula State School,State School,Open,,,Prep Year,Year 6,Principal,02,08 August 2022,www.aratulass.eq.edu.au,(07) 5463 8158,N,(07) 5463 8389,,41 Elizabeth Street,Aratula,4309,41 Elizabeth Street,Aratula,,4309,South East,Wright,Scenic Rim,Scenic Rim (R),Boonah,310021277,Inner Regional Australia,2022 February,62.00,,0.00,,40566276356,State,,152.544186,-27.980839
0813,Arcadia Valley State School,State School,Open,,,Early Childhood,Year 6,Principal,01,06 May 2022,www.arcadiavalleyss.eq.edu.au,(07) 4626 7110,Y,(07) 4626 7145,,4831 Arcadia Valley Road,Arcadia Valley,4454,4831 Arcadia Valley Road,Arcadia Valley,via Injune,4454,Darling Downs South West,Flynn,Gregory,Central Highlands (R),Central Highlands - West,308011191,Remote Australia,2022 February,14.00,,3.00,,74798912711,State,,148.820874,-25.255099
1997,Arundel State School,State School,Open,,,Prep Year,Year 6,Principal,06,26 August 2022,www.arundelss.eq.edu.au,(07) 5561 4888,N,(07) 5561 4800,,Cnr Napper Road & Arundel Drive,Arundel,4214,Cnr Napper Road & Arundel Drive,Arundel,,4214,South East,Fadden,Bonney,Gold Coast (C),Arundel,309031235,Major Cities of Australia,2022 February,1065.00,,0.00,,86513030548,State,,153.365870,-27.945078
0296,Ascot State School,State School,Open,,,Prep Year,Year 6,Principal,05,10 August 2022,www.ascotss.eq.edu.au,(07) 3326 9333,N,(07) 3326 9300,,Pringle Street,Ascot,4007,PO Box 2053,Ascot,,4007,Metropolitan,Brisbane,Clayfield,Brisbane (C),Ascot,305031121,Major Cities of Australia,2022 February,670.00,,0.00,,64536756133,State,,153.055952,-27.432671
0186,Ashgrove State School,State School,Open,,,Prep Year,Year 6,Principal,05,10 August 2022,www.ashgrovess.eq.edu.au,(07) 3858 4777,N,,,31 Glory Street,Ashgrove,4060,PO Box 2077,Ashgrove West,,4060,Metropolitan,Ryan,Cooper,Brisbane (C),Ashgrove,305041132,Major Cities of Australia,2022 February,744.00,,0.00,,45602921885,State,,152.976542,-27.448125
1871,Ashmore State School,State School,Open,,,Prep Year,Year 6,Principal,06,26 August 2022,www.ashmoress.eq.edu.au,(07) 5656 1333,N,(07) 5656 1300,,Currumburra Road,Ashmore,4214,Currumburra Road,Ashmore,,4214,South East,Moncrieff,Southport,Gold Coast (C),Ashmore,309091263,Major Cities of Australia,2022 February,830.00,,0.00,,84529705275,State,,153.381323,-27.989147
0512,Ashwell State School,State School,Open,,,Prep Year,Year 6,Principal,02,13 May 2022,www.ashwellss.eq.edu.au,(07) 5464 1184,N,(07) 5464 2539,,35 Reinke Road,Ashwell,4340,35 Reinke Road,Ashwell via Rosewood,,4340,Metropolitan,Blair,Ipswich West,Ipswich (C),Rosewood,310021282,Inner Regional Australia,2022 February,62.00,,0.00,,61930852088,State,,152.556566,-27.629413
1004,Aspley East State School,State School,Open,,,Prep Year,Year 6,Principal,06,10 August 2022,www.aspleyeastss.eq.edu.au,(07) 3867 2777,N,(07) 3863 7820,,31 Helena Street,Aspley,4034,31 Helena Street,Aspley,,4034,Metropolitan,Petrie,Aspley,Brisbane (C),Aspley,302021027,Major Cities of Australia,2022 February,886.00,,0.00,,54034912342,State,,153.023968,-27.362313
3031,Aspley Special School,Special School,Open,,,Year 7,Year 12,Principal,06,10 August 2022,www.aspleyspecs.eq.edu.au,(07) 3867 2333,N,(07) 3867 2300,,751 Zillmere Road,Aspley,4034,PO Box 67,Zillmere,,4034,Metropolitan,Petrie,Aspley,Brisbane (C),Aspley,302021027,Major Cities of Australia,2022 February,134.00,,0.00,,79268865488,State,,153.021118,-27.356718
2076,Aspley State High School,State High School,Open,,,Year 7,Year 12,Principal,07,10 August 2022,www.aspleyshs.eq.edu.au,(07) 3863 9222,N,(07) 3863 9200,,651 Zillmere Road,Aspley,4034,651 Zillmere Road,Aspley,,4034,Metropolitan,Petrie,Aspley,Brisbane (C),Aspley,302021027,Major Cities of Australia,2022 February,1085.00,,0.00,,30484583885,State,,153.024213,-27.357169
0610,Aspley State School,State School,Open,,,Early Childhood,Year 6,Principal,05,10 August 2022,www.aspleyss.eq.edu.au,(07) 3863 9111,N,(07) 3863 9100,,Maundrell Terrace,Aspley,4034,Maundrell Terrace,Aspley,,4034,Metropolitan,Lilley,Aspley,Brisbane (C),Aspley,302021027,Major Cities of Australia,2022 February,727.00,,0.00,,16378092269,State,,153.014592,-27.369898
2051,Atherton State High School,State High School,Open,,,Year 7,Year 12,Principal,07,28 June 2022,www.athertonshs.eq.edu.au,(07) 4030 5222,N,(07) 4091 3847,,Maunds Road,Atherton,4883,PO Box 574,Atherton,,4883,Far North Queensland,Kennedy,Hill,Tablelands (R),Atherton,306051166,Outer Regional Australia,2022 February,962.00,,0.00,,76205043393,State,,145.486092,-17.260064
0789,Atherton State School,State School,Open,,,Prep Year,Year 6,Principal,05,28 June 2022,www.athertonss.eq.edu.au,(07) 4095 7333,N,,,Armstrong Street,Atherton,4883,PO Box 209,Atherton,,4883,Far North Queensland,Kennedy,Hill,Tablelands (R),Atherton,306051166,Outer Regional Australia,2022 February,362.00,,0.00,,17037789155,State,,145.481622,-17.261668
0357,Augathella State School,State School,Open,,,Early Childhood,Year 6,Principal,02,13 May 2022,www.augathellass.eq.edu.au,(07) 4654 5120,N,(07) 4654 5266,,Cavanagh Street,Augathella,4477,PO Box 33,Augathella,,4477,Darling Downs South West,Maranoa,Warrego,Murweh (S),Charleville,315031409,Very Remote Australia,2022 February,47.00,,5.00,,17989162841,State,,146.583358,-25.797140
7120,Augusta State School,State School,Open,,,Early Childhood,Year 6,Principal,06,13 May 2022,www.augustass.eq.edu.au,(07) 3814 9666,N,(07) 3814 0192,,60-100 Brittains Road,Augustine Heights,4300,60-100 Brittains Road,Augustine Heights,,4300,Metropolitan,Oxley,Jordan,Ipswich (C),Bellbird Park - Brookwater,310041296,Major Cities of Australia,2022 February,1109.00,,18.00,,14994918612,State,,152.876523,-27.655808
0274,Aurukun State School,State School,Open,,,Early Childhood,Year 12,Executive Principal,04,15 July 2022,www.aurukunss.eq.edu.au,(07) 4083 4333,N,(07) 4060 6143,,Wuungkam Street,Aurukun,4892,c/- Aurukun Post Office,Aurukun,,4892,Far North Queensland,Leichhardt,Cook,Aurukun (S),Aurukun,315011395,Very Remote Australia,2022 February,187.00,,13.00,,98464849685,State,,141.729393,-13.353032
2078,Aviation High,State High School,Open,,,Year 7,Year 12,Principal,05,10 August 2022,www.aviationhigh.eq.edu.au,(07) 3637 0111,N,(07) 3637 0100,,Widdop Street,Hendra,4011,PO Box 359,Clayfield,,4011,Metropolitan,Brisbane,Clayfield,Brisbane (C),Hendra,305031125,Major Cities of Australia,2022 February,641.00,,0.00,,72855864714,State,,153.062996,-27.414323
1901,Avoca State School,State School,Open,,,Prep Year,Year 6,Principal,04,26 May 2022,www.avocass.eq.edu.au,(07) 4150 0444,N,(07) 4150 0400,,Twyford Street,Avoca,4670,PO Box 5636,Bundaberg West,,4670,North Coast,Hinkler,Bundaberg,Bundaberg (R),Millbank - Avoca,319011500,Inner Regional Australia,2022 February,281.00,,0.00,,41284121841,State,,152.313454,-24.883639
0572,Avondale State School,State School,Open,,,Prep Year,Year 6,Principal,01,26 May 2022,www.avondaless.eq.edu.au,(07) 4156 1202,N,,,371 Avondale Road,Avondale,4670,371 Avondale Road,Avondale,,4670,North Coast,Flynn,Burnett,Bundaberg (R),Bundaberg Region - North,319011498,Inner Regional Australia,2022 February,9.00,,0.00,,45476823840,State,,152.160664,-24.735813
2008,Ayr State High School,State High School,Open,,,Year 7,Year 12,Principal,05,22 June 2022,www.ayrshs.eq.edu.au,(07) 4790 4333,N,(07) 4790 4300,,Cnr Edwards & Wickham Streets,Ayr,4807,PO Box 961,Ayr,,4807,North Queensland,Dawson,Burdekin,Burdekin (S),Ayr,318011460,Outer Regional Australia,2022 February,567.00,,0.00,,40808982030,State,,147.409618,-19.577045
0451,Ayr State School,State School,Open,,,Prep Year,Year 6,Principal,02,22 June 2022,www.ayrss.eq.edu.au,(07) 4790 3333,N,(07) 4790 3300,,141 Graham Street,Ayr,4807,PO Box 955,Ayr,,4807,North Queensland,Dawson,Burdekin,Burdekin (S),Ayr,318011460,Outer Regional Australia,2022 February,62.00,,0.00,,69102381008,State,,147.400553,-19.579099
1466,Babinda State School,State School,Open,,,Prep Year,Year 12,Principal,05,15 July 2022,www.babindass.eq.edu.au,(07) 4067 8333,N,(07) 4067 8300,,Boulders Road,Babinda,4861,PO Box 217,Babinda,,4861,Far North Queensland,Kennedy,Hill,Cairns (R),Babinda,306031158,Outer Regional Australia,2022 February,293.00,,0.00,,90249901046,State,,145.912648,-17.345975
0317,Back Plains State School,State School,Open,,,Prep Year,Year 6,Principal,01,25 March 2022,www.backplainsss.eq.edu.au,(07) 4695 8571,N,,,874 Clifton-Pittsworth Highway,Back Plains,4361,MS 29,Clifton,,4361,Darling Downs South West,Maranoa,Condamine,Toowoomba (R),Clifton - Greenmount,307031184,Inner Regional Australia,2022 February,23.00,,0.00,,58143409430,State,,151.784224,-27.892622
0906,Bajool State School,State School,Open,,,Prep Year,Year 6,Principal,02,09 June 2022,www.bajoolss.eq.edu.au,(07) 4934 6128,N,,,Toonda Street,Bajool,4699,c/- Post Office,Bajool,,4699,Central Queensland,Flynn,Mirani,Rockhampton (R),Bouldercombe,308031206,Outer Regional Australia,2022 February,38.00,,0.00,,64205894228,State,,150.646749,-23.652300
1689,Balaclava State School,State School,Open,,,Prep Year,Year 6,Principal,05,15 July 2022,www.balaclavass.eq.edu.au,(07) 4081 5333,N,(07) 4081 5300,,418 Mulgrave Road,Mooroobool,4870,PO Box 266M,Manunda,,4870,Far North Queensland,Leichhardt,Cairns,Cairns (R),Kanimbla - Mooroobool,306021149,Outer Regional Australia,2022 February,332.00,,0.00,,77803106315,State,,145.744947,-16.936708
0004,Bald Hills State School,State School,Open,,,Prep Year,Year 6,Principal,05,10 August 2022,www.baldhillss.eq.edu.au,(07) 3869 5555,N,,,2156 Gympie Road,Bald Hills,4036,PO Box 40,Bald Hills,,4036,Metropolitan,Petrie,Aspley,Brisbane (C),Bald Hills,302011022,Major Cities of Australia,2022 February,616.00,,0.00,,75695439556,State,,153.006826,-27.320095
1164,Ballandean State School,State School,Open,,,Prep Year,Year 6,Principal,02,28 January 2022,www.ballandeanss.eq.edu.au,(07) 4684 1254,N,(07) 4684 1246,,Bent's Road,Ballandean,4382,c/- Post Office,Ballandean,,4382,Darling Downs South West,Maranoa,Southern Downs,Southern Downs (R),Stanthorpe Region,307031188,Outer Regional Australia,2022 February,33.00,,0.00,,43393348622,State,,151.841491,-28.798610
2043,Balmoral State High School,State High School,Open,,,Year 7,Year 12,Principal,06,10 August 2022,www.balmoralshs.eq.edu.au,(07) 3823 8588,N,(07) 3823 8500,,Cnr Thynne & Lytton Roads,Balmoral,4171,PO Box 120,Morningside,,4170,Metropolitan,Griffith,Bulimba,Brisbane (C),Balmoral,305021113,Major Cities of Australia,2022 February,847.00,,0.00,,28493519073,State,,153.072786,-27.456010
0521,Banana State School,State School,Open,,,Prep Year,Year 6,Principal,02,13 May 2022,www.bananass.eq.edu.au,(07) 4995 9333,N,(07) 4995 9300,,32 Bramston Street,Banana,4702,32 Bramston Street,Banana,,4702,Central Queensland,Flynn,Callide,Banana (S),Banana,308041528,Outer Regional Australia,2022 February,43.00,,0.00,,55253912937,State,,150.129998,-24.469999
1989,Banksia Beach State School,State School,Open,,,Early Childhood,Year 6,Principal,06,08 August 2022,www.banksiabeachss.eq.edu.au,(07) 3408 5333,N,(07) 3408 5300,,Sunderland Road,Banksia Beach,4507,PO Box 243,Bribie Island,,4507,North Coast,Longman,Pumicestone,Moreton Bay (R),Bribie Island,313011363,Inner Regional Australia,2022 February,933.00,,0.00,,51445986826,State,,153.148339,-27.046341
1605,Baralaba State School,State School,Open,,,Early Childhood,Year 10,Principal,03,10 June 2022,www.baralabass.eq.edu.au,(07) 4998 2333,N,(07) 4998 2300,,1 Power Street,Baralaba,4702,PO Box 24,Baralaba,,4702,Central Queensland,Flynn,Callide,Banana (S),Banana,308041528,Outer Regional Australia,2022 February,114.00,,7.00,,37213269394,State,,149.809756,-24.181073
0531,Barcaldine Prep-12 State School,State School,Open,,,Early Childhood,Year 12,Principal,04,30 September 2022,www.barcaldiness.eq.edu.au,(07) 4651 5333,N,(07) 4651 5300,,Gidyea Street,Barcaldine,4725,PO Box 136,Barcaldine,,4725,Central Queensland,Maranoa,Gregory,Barcaldine (R),Barcaldine - Blackall,315031408,Very Remote Australia,2022 February,229.00,,0.00,,63992688270,State,,145.294011,-23.558838
1041,Bardon State School,State School,Open,,,Prep Year,Year 6,Principal,04,10 August 2022,www.bardonss.eq.edu.au,(07) 3511 4555,N,(07) 3511 4500,,330 Simpsons Road,Bardon,4065,330 Simpsons Road,Bardon,,4065,Metropolitan,Ryan,Maiwar,Brisbane (C),Bardon,305041134,Major Cities of Australia,2022 February,299.00,,0.00,,42195804403,State,,152.972139,-27.459916
0702,Bargara State School,State School,Open,,,Prep Year,Year 6,Principal,05,26 May 2022,www.bargarass.eq.edu.au,(07) 4150 5333,N,,,591 Bargara Road,Mon Repos,4670,591 Bargara Road,Bargara,,4670,North Coast,Hinkler,Burnett,Bundaberg (R),Bargara - Burnett Heads,319011493,Inner Regional Australia,2022 February,364.00,,0.00,,40348572046,State,,152.438760,-24.822161
A109,Baringa State Primary School,State School,Open,,,Prep Year,Year 6,Principal,06,27 May 2022,www.baringass.eq.edu.au,(07) 5390 2333,N,,,30 Baringa Drive,Baringa,4551,30 Baringa Drive,Baringa,,4551,North Coast,Fisher,Caloundra,Sunshine Coast (R),Caloundra - West,316021420,Major Cities of Australia,2022 February,1044.00,,0.00,,28376889608,State,,153.081063,-26.807568
A908,Baringa State Secondary College,State High School,Open,,,Year 7,Year 9,Principal,07,27 May 2022,www.baringassc.eq.edu.au,(07) 5293 4333,N,,,10 Griffith Place,Baringa,4551,10 Griffith Place,Baringa,,4551,North Coast,Fisher,Caloundra,Sunshine Coast (R),Caloundra - West,316021420,Major Cities of Australia,2022 February,370.00,,0.00,,65587407338,State,,153.076974,-26.805069
0777,Barkly Highway State School,State School,Open,,,Early Childhood,Year 6,Principal,05,17 June 2022,www.barklyhighwayss.eq.edu.au,(07) 4437 3633,N,,,3-17 Bougainville Street,Soldiers Hill,4825,PO Box 2214,Mount Isa,,4825,North Queensland,Kennedy,Traeger,Mount Isa (C),Mount Isa,315021405,Remote Australia,2022 February,316.00,,9.00,,65846809331,State,,139.489312,-20.707670
3056,Barrett Adolescent Centre Special School,Specific Purpose School,Open,,,Year 7,Year 12,Principal,03,10 August 2022,www.barrettadolescentcentreschool.eq.edu.au,(07) 3373 3344,N,,,38 Lofter Street,Tennyson,4105,PO Box 3225,Yeronga,,4104,Metropolitan,Moreton,Miller,Brisbane (C),Yeronga,303021059,Major Cities of Australia,2022 February,28.00,,0.00,,95170964246,State,,153.003241,-27.527284
1730,Bartle Frere State School,State School,Open,,,Prep Year,Year 6,Principal,01,15 July 2022,www.bartlefreress.eq.edu.au,(07) 4067 6240,N,(07) 4067 6398,,29 Price Road,Bartle Frere,4861,PO Box 62,Miriwinni,,4871,Far North Queensland,Kennedy,Hill,Cairns (R),Babinda,306031158,Outer Regional Australia,2022 February,7.00,,0.00,,86987501236,State,,145.885217,-17.444645
0387,Bauhinia State School,State School,Open,,,Early Childhood,Year 6,Principal,02,13 May 2022,www.bauhiniass.eq.edu.au,(07) 4996 4150,N,(07) 4996 4182,,11559 Fitzroy Development Road,Bauhinia,4718,MS 2133,Moura,,4718,Central Queensland,Flynn,Gregory,Central Highlands (R),Central Highlands - East,308011190,Remote Australia,2022 February,15.00,,2.00,,79025085307,State,,149.296066,-24.566682
0966,Bauple State School,State School,Open,,,Prep Year,Year 6,Principal,01,20 May 2022,www.baupless.eq.edu.au,(07) 4193 8222,N,(07) 4129 2523,,44 Forestry Road,Bauple,4650,44 Forestry Road,Bauple,,4650,North Coast,Wide Bay,Gympie,Fraser Coast (R),Maryborough Region - South,319051525,Inner Regional Australia,2022 February,25.00,,0.00,,25408118513,State,,152.622887,-25.812184
1798,Bay View State School,State School,Open,,,Prep Year,Year 6,Principal,05,08 August 2022,www.bayviewss.eq.edu.au,(07) 3206 5222,N,(07) 3206 0511,,77 Ziegenfusz Road,Thornlands,4164,77 Ziegenfusz Road,Thornlands,,4164,South East,Bowman,Redlands,Redland (C),Thornlands,301021012,Major Cities of Australia,2022 February,744.00,,0.00,,98718283819,State,,153.261816,-27.563749
1961,Beachmere State School,State School,Open,,,Prep Year,Year 6,Principal,04,08 August 2022,www.beachmeress.eq.edu.au,(07) 5433 9222,N,,,James Road,Beachmere,4510,James Road,Beachmere,,4510,North Coast,Longman,Pumicestone,Moreton Bay (R),Beachmere - Sandstone Point,313011362,Major Cities of Australia,2022 February,314.00,,0.00,,82439360912,State,,153.047690,-27.131538
1672,Beaconsfield State School,State School,Open,,,Prep Year,Year 6,Principal,05,16 June 2022,www.beaconsfieldss.eq.edu.au,(07) 4969 2222,N,,,Nadina Street,Beaconsfield,4740,PO Box 8823,Mount Pleasant,,4740,Central Queensland,Dawson,Mackay,Mackay (R),Andergrove - Beaconsfield,312021342,Inner Regional Australia,2022 February,454.00,,0.00,,34324377664,State,,149.171331,-21.093329
2083,Beaudesert State High School,State High School,Open,,,Year 7,Year 12,Principal,08,08 August 2022,www.beaudesertshs.eq.edu.au,(07) 5542 9111,N,,,271-297 Brisbane Street,Beaudesert,4285,PO Box 104,Beaudesert,,4285,South East,Wright,Scenic Rim,Scenic Rim (R),Beaudesert,311011305,Inner Regional Australia,2022 February,1332.00,,0.00,,34885527532,State,,152.997001,-27.970749
0158,Beaudesert State School,State School,Open,,,Early Childhood,Year 6,Principal,05,08 August 2022,www.beaudesertss.eq.edu.au,(07) 5540 1111,N,(07) 5540 1100,,17 Tina Street,Beaudesert,4285,PO Box 182,Beaudesert,,4285,South East,Wright,Scenic Rim,Scenic Rim (R),Beaudesert,311011305,Inner Regional Australia,2022 February,538.00,,11.00,,29200301809,State,,153.002363,-27.988875
1019,Bedourie State School,State School,Open,,,Early Childhood,Year 6,Principal,01,02 September 2022,www.bedouriess.eq.edu.au,(07) 4746 1224,Y,,,Timor Street,Bedourie,4829,Timor Street,Bedourie,,4829,Central Queensland,Maranoa,Gregory,Diamantina (S),Far Central West,315031410,Very Remote Australia,2022 February,9.00,,2.00,,73080498741,State,,139.471353,-24.360325
0681,Beechmont State School,State School,Open,,,Prep Year,Year 6,Principal,03,26 August 2022,www.beechmontss.eq.edu.au,(07) 5545 9100,N,(07) 5545 9199,,1922 Beechmont Road,Beechmont,4211,1922 Beechmont Road,Beechmont,,4211,South East,Wright,Scenic Rim,Scenic Rim (R),Tamborine - Canungra,309041242,Inner Regional Australia,2022 February,116.00,,0.00,,11080317028,State,,153.185673,-28.124860
3051,Beenleigh Special School,Special School,Open,,,Prep Year,Year 12,Principal,07,08 August 2022,www.beenleighspecs.eq.edu.au,(07) 3380 1111,N,(07) 3380 1100,,52-74 Mount Warren Boulevard,Mount Warren Park,4207,52-74 Mount Warren Boulevard,Mount Warren Park,,4207,South East,Forde,Macalister,Logan (C),Mount Warren Park,311021309,Major Cities of Australia,2022 February,281.00,,0.00,,98650906211,State,,153.201150,-27.724668
2084,Beenleigh State High School,State High School,Open,,,Year 7,Year 12,Principal,09,08 August 2022,www.beenleighshs.eq.edu.au,(07) 3442 3777,N,(07) 3442 3700,,Alamein Street,Beenleigh,4207,PO Box 29,Beenleigh,,4207,South East,Forde,Macalister,Logan (C),Beenleigh,311021306,Major Cities of Australia,2022 February,1323.00,,0.00,,36642680210,State,,153.204418,-27.715327
0006,Beenleigh State School,State School,Open,,,Prep Year,Year 6,Principal,05,08 August 2022,www.beenleighss.eq.edu.au,(07) 3386 2333,N,(07) 3386 2300,,22 James Street,Beenleigh,4207,PO Box 246,Beenleigh,,4207,South East,Forde,Macalister,Logan (C),Beenleigh,311021306,Major Cities of Australia,2022 February,427.00,,0.00,,16252717288,State,,153.199788,-27.717928
1598,Beerburrum State School,State School,Open,,,Prep Year,Year 6,Principal,02,27 May 2022,www.beerburrumss.eq.edu.au,(07) 5439 5222,N,(07) 5496 0321,,8 Beerburrum Road,Beerburrum,4517,8 Beerburrum Road,Beerburrum,,4517,North Coast,Fisher,Glass House,Sunshine Coast (R),Glass House Mountains,316061441,Inner Regional Australia,2022 February,63.00,,0.00,,47475425972,State,,152.957276,-26.956986
2109,Beerwah State High School,State High School,Open,,,Year 7,Year 12,Principal,06,27 May 2022,www.beerwahshs.eq.edu.au,(07) 5436 5333,N,,,35 Roberts Road,Beerwah,4519,PO Box 198,Beerwah,,4519,North Coast,Fisher,Caloundra,Sunshine Coast (R),Beerwah,316061439,Inner Regional Australia,2022 February,909.00,,0.00,,93096910678,State,,152.954038,-26.862792
0569,Beerwah State School,State School,Open,,,Early Childhood,Year 6,Principal,04,27 May 2022,www.beerwahss.eq.edu.au,(07) 5436 5555,N,,,2788 Old Gympie Road,Beerwah,4519,PO Box 140,Beerwah,,4519,North Coast,Fisher,Caloundra,Sunshine Coast (R),Beerwah,316061439,Inner Regional Australia,2022 February,240.00,,6.00,,36618819288,State,,152.939936,-26.855415
0187,Begonia State School,State School,Open,,,Early Childhood,Year 6,Principal,01,08 August 2022,www.begoniass.eq.edu.au,(07) 4625 7445,N,,,4233 Begonia Rd,Begonia Via St George,4487,4233 Begonia Rd,Begonia Via St George,,4487,Darling Downs South West,Maranoa,Warrego,Maranoa (R),Roma Region,307011177,Remote Australia,2022 February,10.00,,1.00,,37945621979,State,,148.324991,-27.491787
0509,Belgian Gardens State School,State School,Open,,,Prep Year,Year 6,Principal,05,04 July 2022,www.belgiangardensss.eq.edu.au,(07) 4417 1333,N,(07) 4772 5553,,43 Potts Street,Belgian Gardens,4810,43 Potts Street,Belgian Gardens,,4810,North Queensland,Herbert,Townsville,Townsville (C),Belgian Gardens - Pallarenda,318021469,Outer Regional Australia,2022 February,589.00,,0.00,,43657227376,State,,146.792881,-19.250797
0781,Bell State School,State School,Open,,,Early Childhood,Year 10,Principal,03,01 April 2022,www.bellss.eq.edu.au,(07) 4679 2333,N,(07) 4663 1249,,90 Dennis Street,Bell,4408,90 Dennis Street,Bell,,4408,Darling Downs South West,Maranoa,Callide,Western Downs (R),Wambo,307021183,Outer Regional Australia,2022 February,98.00,,12.00,,77328128659,State,,151.452992,-26.939739
9322,Bellbird Park State Secondary College,State High School,Open,,,Year 7,Year 12,Principal,08,13 May 2022,www.bellbirdparkssc.eq.edu.au,(07) 3819 7222,N,(07) 3819 7200,,2 Alesana Drive,Bellbird Park,4300,2 Alesana Drive,Bellbird Park,,4300,Metropolitan,Oxley,Bundamba,Ipswich (C),Bellbird Park - Brookwater,310041296,Major Cities of Australia,2022 February,1719.00,,0.00,,86764949810,State,,152.883787,-27.640517
1768,Bellenden Ker State School,State School,Open,,,Prep Year,Year 6,Principal,01,15 July 2022,www.bellendenkerss.eq.edu.au,(07) 4067 5292,N,,,Harvey Creek Road,Bellenden Ker,4871,PO Box 199,Babinda,,4861,Far North Queensland,Kennedy,Hill,Cairns (R),Babinda,306031158,Outer Regional Australia,2022 February,6.00,,0.00,,51168391235,State,,145.925126,-17.266693
1925,Bellevue Park State School,State School,Open,,,Prep Year,Year 6,Principal,05,26 August 2022,www.bellevueparkss.eq.edu.au,(07) 5504 8222,N,(07) 5597 3939,,Sapium Road,Ashmore,4214,Sapium Road,Southport,,4215,South East,Moncrieff,Southport,Gold Coast (C),Ashmore,309091263,Major Cities of Australia,2022 February,676.00,,0.00,,97237136627,State,,153.396254,-27.995615
9319,Bellmere State School,State School,Open,,,Prep Year,Year 6,Principal,05,08 August 2022,www.bellmeress.eq.edu.au,(07) 5498 0666,N,,,176 Dobson Lane,Bellmere,4510,PO Box 200,Morayfield,,4506,North Coast,Longman,Morayfield,Moreton Bay (R),Caboolture - South,313021366,Major Cities of Australia,2022 February,684.00,,0.00,,59166902188,State,,152.915833,-27.093611
0226,Belmont State School,State School,Open,,,Prep Year,Year 6,Principal,06,10 August 2022,www.belmontss.eq.edu.au,(07) 3843 9333,N,(07) 3843 9300,,Old Cleveland Road,Carindale,4152,Old Cleveland Road,Carindale,,4152,Metropolitan,Bonner,Chatsworth,Brisbane (C),Carindale,303011051,Major Cities of Australia,2022 February,931.00,,0.00,,44181540533,State,,153.115625,-27.503012
0393,Benaraby State School,State School,Open,,,Prep Year,Year 6,Principal,03,08 August 2022,www.benarabyss.eq.edu.au,(07) 4970 4333,N,(07) 4970 4300,,17 O'Connor Road,Benaraby,4680,17 O'Connor Road,Benaraby,,4680,Central Queensland,Flynn,Gladstone,Gladstone (R),Gladstone Hinterland,308051535,Inner Regional Australia,2022 February,122.00,,0.00,,19968719454,State,,151.323819,-24.003765
1631,Benarkin State School,State School,Open,,,Prep Year,Year 6,Principal,02,08 August 2022,www.benarkinss.eq.edu.au,(07) 4163 0201,N,,,Scott Street,Benarkin,4314,Scott Street,Benarkin,,4314,Darling Downs South West,Maranoa,Nanango,South Burnett (R),Nanango,319021509,Outer Regional Australia,2022 February,60.00,,0.00,,65323202521,State,,152.141799,-26.884469
2150,Benowa State High School,State High School,Open,,,Year 7,Year 12,Principal,09,26 August 2022,www.benowashs.eq.edu.au,(07) 5582 7333,N,(07) 5582 7300,,Mediterranean Drive,Benowa,4217,PO Box 5733,Gold Coast Mail Centre,,9726,South East,Moncrieff,Southport,Gold Coast (C),Benowa,309101267,Major Cities of Australia,2022 February,1993.00,,0.00,,83679939972,State,,153.388506,-28.004753
0481,Benowa State School,State School,Open,,,Early Childhood,Year 6,Principal,06,26 August 2022,www.benowass.eq.edu.au,(07) 5510 4333,N,,,314-358 Benowa Road,Benowa,4217,314-358 Benowa Road,Benowa,,4217,South East,Moncrieff,Southport,Gold Coast (C),Benowa,309101267,Major Cities of Australia,2022 February,878.00,,22.00,,35924712636,State,,153.391147,-28.007731
0452,Bentley Park College,State School,Open,,,Prep Year,Year 12,Principal,09,15 July 2022,www.bentleyparkcollege.eq.edu.au,(07) 4040 8111,N,(07) 4040 8100,,McLaughlin Road,Bentley Park,4869,PO Box 289,Edmonton,,4869,Far North Queensland,Kennedy,Mulgrave,Cairns (R),Bentley Park,306021144,Outer Regional Australia,2022 February,1681.00,,0.00,,60185065962,State,,145.740081,-17.009376
1867,Berrinba East State School,State School,Open,,,Prep Year,Year 6,Principal,05,08 August 2022,www.berrinbaeastss.eq.edu.au,(07) 3489 6777,N,,,165 Bardon Road,Berrinba,4117,PO Box 138,Kingston,,4114,South East,Rankin,Woodridge,Logan (C),Logan Central,311061331,Major Cities of Australia,2022 February,411.00,,0.00,,12686828676,State,,153.097758,-27.652127
1546,Berserker Street State School,State School,Open,,,Prep Year,Year 6,Principal,05,09 June 2022,www.berserkerstreetss.eq.edu.au,(07) 4999 0333,N,(07) 4999 0300,,Berserker Street,Berserker,4701,PO Box 9911,Frenchville,North Rockhampton,4701,Central Queensland,Capricornia,Rockhampton,Rockhampton (R),Berserker,308031205,Inner Regional Australia,2022 February,356.00,,0.00,,89162515520,State,,150.529910,-23.365464
0996,Biboohra State School,State School,Open,,,Prep Year,Year 6,Principal,02,15 July 2022,www.biboohrass.eq.edu.au,(07) 4086 9333,N,(07) 4093 2627,,Petersen Street,Biboohra,4880,PO Box 269,Mareeba,,4880,Far North Queensland,Kennedy,Cook,Mareeba (S),Tablelands,315011400,Outer Regional Australia,2022 February,73.00,,0.00,,15377849038,State,,145.419140,-16.915896
1663,Biddeston State School,State School,Open,,,Prep Year,Year 6,Principal,02,25 March 2022,www.biddestonss.eq.edu.au,(07) 4691 6145,N,,,2425 Cecil Plains Road,Biddeston,4401,2425 Cecil Plains Road,Biddeston via Oakey,,4401,Darling Downs South West,Groom,Condamine,Toowoomba (R),Jondaryan,307021180,Inner Regional Australia,2022 February,49.00,,0.00,,63965437256,State,,151.697336,-27.554140
0666,Biggenden State School,State School,Open,,,Prep Year,Year 10,Principal,03,08 August 2022,www.biggendenss.eq.edu.au,(07) 4127 6333,N,(07) 4127 6300,,Frederick Street,Biggenden,4621,PO Box 15,Biggenden,,4621,Central Queensland,Flynn,Callide,North Burnett (R),Gayndah - Mundubbera,319021503,Outer Regional Australia,2022 February,111.00,,0.00,,23845634188,State,,152.047434,-25.510709
0065,Biggera Waters State School,State School,Open,,,Prep Year,Year 6,Principal,06,26 August 2022,www.biggerawatersss.eq.edu.au,(07) 5573 9222,N,(07) 5529 0250,,Cnr Morala Avenue & Coombabah Road,Biggera Waters,4216,Cnr Morala Avenue & Coombabah Road,Biggera Waters,,4216,South East,Fadden,Broadwater,Gold Coast (C),Biggera Waters,309031236,Major Cities of Australia,2022 February,776.00,,0.00,,32064938586,State,,153.397355,-27.927255
2085,Biloela State High School,State High School,Open,,,Year 7,Year 12,Principal,06,13 May 2022,www.biloelashs.eq.edu.au,(07) 4992 8666,N,,,Cnr Scoria Street & Gladstone Road,Biloela,4715,Locked Mail Bag 2,Biloela,,4715,Central Queensland,Flynn,Callide,Banana (S),Biloela,308041529,Outer Regional Australia,2022 February,563.00,,0.00,,53568423476,State,,150.517836,-24.398895
1822,Biloela State School,State School,Open,,,Early Childhood,Year 6,Principal,04,13 May 2022,www.biloelass.eq.edu.au,(07) 4992 8888,N,,,48 Rainbow Street,Biloela,4715,PO Box 395,Biloela,,4715,Central Queensland,Flynn,Callide,Banana (S),Biloela,308041529,Outer Regional Australia,2022 February,341.00,,11.00,,97549864419,State,,150.516145,-24.398384
1397,Binjour Plateau State School,State School,Open,,,Prep Year,Year 6,Principal,01,08 August 2022,www.binjourplateauss.eq.edu.au,(07) 4161 3158,N,,,18401 Burnett Highway,Binjour,4625,MS 498,Gayndah,,4625,Central Queensland,Flynn,Callide,North Burnett (R),Gayndah - Mundubbera,319021503,Outer Regional Australia,2022 February,9.00,,0.00,,76252392980,State,,151.456646,-25.515779
1679,Birdsville State School,State School,Open,,,Early Childhood,Year 6,Principal,01,02 September 2022,www.birdsvilless.eq.edu.au,(07) 4656 3233,Y,,,Adelaide Street,Birdsville,4482,Adelaide Street,Birdsville,,4482,Central Queensland,Maranoa,Gregory,Diamantina (S),Far Central West,315031410,Very Remote Australia,2022 February,2.00,,0.00,,84936990593,State,,139.352702,-25.898441
1915,Birkdale South State School,State School,Open,,,Prep Year,Year 6,Principal,05,08 August 2022,www.birkdalesouthss.eq.edu.au,(07) 3820 4333,N,(07) 3820 4300,,451 Old Cleveland Road East,Birkdale,4159,451 Old Cleveland Road East,Birkdale,,4159,South East,Bowman,Capalaba,Redland (C),Birkdale,301011003,Major Cities of Australia,2022 February,516.00,,0.00,,56642071659,State,,153.212623,-27.505887
1545,Birkdale State School,State School,Open,,,Prep Year,Year 6,Principal,05,08 August 2022,www.birkdaless.eq.edu.au,(07) 3286 0777,N,(07) 3286 0700,,74 Agnes Street,Birkdale,4159,74 Agnes Street,Birkdale,,4159,South East,Bowman,Capalaba,Redland (C),Birkdale,301011003,Major Cities of Australia,2022 February,492.00,,0.00,,90357668441,State,,153.216116,-27.491200
0299,Blackall State School,State School,Open,,,Prep Year,Year 12,Principal,03,01 November 2022,www.blackallss.eq.edu.au,(07) 4657 7333,N,(07) 4657 7300,,Cnr Hawthorne & Shamrock Streets,Blackall,4472,PO Box 136,Blackall,,4472,Central Queensland,Maranoa,Gregory,Blackall Tambo (R),Barcaldine - Blackall,315031408,Very Remote Australia,2022 February,86.00,,0.00,,80878456168,State,,145.469681,-24.425603
0739,Blackbutt State School,State School,Open,,,Prep Year,Year 6,Principal,03,08 August 2022,www.blackbuttss.eq.edu.au,(07) 4170 2222,N,(07) 4163 0625,,Crofton Street,Blackbutt,4314,Crofton Street,Blackbutt,,4314,Darling Downs South West,Maranoa,Nanango,South Burnett (R),Nanango,319021509,Outer Regional Australia,2022 February,126.00,,0.00,,18680261439,State,,152.103950,-26.890508
1891,Blackwater North State School,State School,Open,,,Early Childhood,Year 6,Principal,05,01 June 2022,www.blackwaternorthss.eq.edu.au,(07) 4980 5333,N,(07) 4980 5300,,William Street,Blackwater,4717,PO Box 327,Blackwater,,4717,Central Queensland,Flynn,Gregory,Central Highlands (R),Central Highlands - East,308011190,Outer Regional Australia,2022 February,422.00,,1.00,,71125720767,State,,148.886472,-23.566293
2134,Blackwater State High School,State High School,Open,,,Year 7,Year 12,Principal,05,01 June 2022,www.blackwatershs.eq.edu.au,(07) 4986 9555,N,,,Elm Street,Blackwater,4717,PO Box 148,Blackwater,,4717,Central Queensland,Flynn,Gregory,Central Highlands (R),Central Highlands - East,308011190,Outer Regional Australia,2022 February,375.00,,0.00,,83339798065,State,,148.882740,-23.572480
0396,Blackwater State School,State School,Open,,,Prep Year,Year 6,Principal,03,01 June 2022,www.blackwaterss.eq.edu.au,(07) 4986 0111,N,(07) 4986 0100,,Wey Street,Blackwater,4717,PO Box 44,Blackwater,,4717,Central Queensland,Flynn,Gregory,Central Highlands (R),Central Highlands - East,308011190,Outer Regional Australia,2022 February,179.00,,0.00,,86396407148,State,,148.877854,-23.583420
1565,Blair State School,State School,Open,,,Prep Year,Year 6,Principal,04,13 May 2022,www.blairss.eq.edu.au,(07) 3813 8555,N,,,Cribb Street,Sadliers Crossing,4305,Cribb Street,Sadliers Crossing,,4305,Metropolitan,Blair,Ipswich,Ipswich (C),Ipswich - Central,310031286,Major Cities of Australia,2022 February,368.00,,0.00,,75062992738,State,,152.748501,-27.612002
0316,Blenheim State School,State School,Open,,,Prep Year,Year 6,Principal,02,08 August 2022,www.blenheimss.eq.edu.au,(07) 5466 9555,N,,,81 Blenheim Road,Blenheim,4341,81 Blenheim Road,Blenheim,,4341,Darling Downs South West,Wright,Lockyer,Lockyer Valley (R),Lockyer Valley - East,310021280,Inner Regional Australia,2022 February,47.00,,0.00,,15578613937,State,,152.331787,-27.650135
0952,Bli Bli State School,State School,Open,,,Prep Year,Year 6,Principal,05,10 June 2022,www.blibliss.eq.edu.au,(07) 5458 2111,N,(07) 5458 2100,,School Road,Bli Bli,4560,School Road,Bli Bli,,4560,North Coast,Fairfax,Ninderry,Sunshine Coast (R),Bli Bli,316071545,Major Cities of Australia,2022 February,663.00,,0.00,,79427568470,State,,153.031973,-26.613764
1173,Bloomfield River State School,State School,Open,,,Prep Year,Year 6,Principal,02,15 July 2022,www.bloomfieldriverss.eq.edu.au,(07) 4060 8134,N,(07) 4060 8180,,3202 Rossville-Bloomfield Road,Bloomfield,4895,Pmb 1001,Bloomfield,Cooktown,4895,Far North Queensland,Leichhardt,Cook,Cook (S),Cape York,315011396,Remote Australia,2022 February,56.00,,0.00,,50318179535,State,,145.341398,-15.935214
0981,Bloomsbury State School,State School,Open,,,Prep Year,Year 6,Principal,02,17 June 2022,www.bloomsbuss.eq.edu.au,(07) 4947 5736,N,(07) 4947 5787,,8545 Bruce Highway,Bloomsbury,4799,Community Mail Bag,Bloomsbury,,4799,Central Queensland,Dawson,Whitsunday,Mackay (R),Seaforth - Calen,312021353,Outer Regional Australia,2022 February,42.00,,0.00,,44460533045,State,,148.595550,-20.702837
0612,Bluewater State School,State School,Open,,,Prep Year,Year 6,Principal,04,04 July 2022,www.bluewaterss.eq.edu.au,(07) 4751 2333,N,(07) 4751 2300,,Buckby Street,Bluewater,4818,P O Box 814,Deeragun,,4818,North Queensland,Herbert,Hinchinbrook,Townsville (C),Northern Beaches,318021486,Outer Regional Australia,2022 February,351.00,,0.00,,32628274692,State,,146.555658,-19.174864
0344,Bluff State School,State School,Open,,,Prep Year,Year 6,Principal,01,01 June 2022,www.bluffss.eq.edu.au,(07) 4982 9167,N,(07) 4982 9324,,Main Street,Bluff,4702,Main Street,Bluff,,4702,Central Queensland,Flynn,Gregory,Central Highlands (R),Central Highlands - East,308011190,Outer Regional Australia,2022 February,18.00,,0.00,,30281629907,State,,149.068871,-23.582155
1299,Bohlevale State School,State School,Open,,,Early Childhood,Year 6,Principal,05,04 July 2022,www.bohlevaless.eq.edu.au,(07) 4729 3555,N,(07) 4729 3500,,Bohlevale School Road,Burdell,4818,Bohlevale School Road,Bohle,,4818,North Queensland,Herbert,Hinchinbrook,Townsville (C),Deeragun,318021473,Outer Regional Australia,2022 February,562.00,,1.00,,62932087802,State,,146.685598,-19.248850
0425,Bollon State School,State School,Open,,,Early Childhood,Year 6,Principal,01,08 August 2022,www.bollonss.eq.edu.au,(07) 4625 6139,N,,,Main Street,Bollon,4488,PO Box 39,Bollon,,4488,Darling Downs South West,Maranoa,Warrego,Balonne (S),Balonne,307011171,Very Remote Australia,2022 February,12.00,,3.00,,67535094528,State,,147.475661,-28.031512
2105,Boonah State High School,State High School,Open,,,Year 7,Year 12,Principal,06,08 August 2022,www.boonahshs.eq.edu.au,(07) 5460 6111,N,,,32 Macquarie Street,Boonah,4310,PO Box 94,Boonah,,4310,South East,Wright,Scenic Rim,Scenic Rim (R),Boonah,310021277,Inner Regional Australia,2022 February,634.00,,0.00,,66216794823,State,,152.689172,-27.995422
0333,Boonah State School,State School,Open,,,Prep Year,Year 6,Principal,04,08 August 2022,www.boonahss.eq.edu.au,(07) 5460 6333,N,(07) 5460 6300,,Park Street,Boonah,4310,PO Box 73,Boonah,,4310,South East,Wright,Scenic Rim,Scenic Rim (R),Boonah,310021277,Inner Regional Australia,2022 February,168.00,,0.00,,52237623089,State,,152.681179,-27.997753
1603,Boondall State School,State School,Open,,,Prep Year,Year 6,Principal,05,10 August 2022,www.boondallss.eq.edu.au,(07) 3623 8333,N,(07) 3623 8300,,Cnr Sandgate & Roscommon Roads,Boondall,4034,Cnr Sandgate & Roscommon Roads,Boondall,,4034,Metropolitan,Lilley,Nudgee,Brisbane (C),Boondall,302031035,Major Cities of Australia,2022 February,647.00,,0.00,,26430325088,State,,153.059312,-27.348419
1542,Booyal Central State School,State School,Open,,,Prep Year,Year 6,Principal,01,08 August 2022,www.booyalcentralss.eq.edu.au,(07) 4126 0177,N,(07) 4126 0181,,31620 Bruce Highway,Booyal,4671,MS 71,Gin Gin,,4671,North Coast,Hinkler,Burnett,Bundaberg (R),Bundaberg Region - South,319011499,Inner Regional Australia,2022 February,16.00,,0.00,,66633441220,State,,152.032462,-25.209454
1981,Boronia Heights State School,State School,Open,,,Prep Year,Year 6,Principal,05,08 August 2022,www.boroniaheightsss.eq.edu.au,(07) 3802 6333,N,(07) 3800 7680,,194 Middle Road,Boronia Heights,4124,PO Box 200,Browns Plains,,4118,South East,Forde,Logan,Logan (C),Boronia Heights - Park Ridge,311031311,Major Cities of Australia,2022 February,566.00,,0.00,,96857385618,State,,153.017810,-27.684280
0899,Bororen State School,State School,Open,,,Early Childhood,Year 6,Principal,02,08 August 2022,www.bororenss.eq.edu.au,(07) 4974 4124,N,,,1 Kent Street,Bororen,4678,c/- Post Office,Bororen,,4678,Central Queensland,Flynn,Burnett,Gladstone (R),Agnes Water - Miriam Vale,308051530,Outer Regional Australia,2022 February,21.00,,1.00,,20070915884,State,,151.491993,-24.244368
0057,Bouldercombe State School,State School,Open,,,Prep Year,Year 6,Principal,03,09 June 2022,www.bouldercombess.eq.edu.au,(07) 4912 4777,N,(07) 4912 4700,,52599 Burnett Highway,Bouldercombe,4702,52599 Burnett Highway,Bouldercombe,,4702,Central Queensland,Flynn,Mirani,Rockhampton (R),Bouldercombe,308031206,Inner Regional Australia,2022 February,109.00,,0.00,,66425077483,State,,150.471788,-23.564135
0595,Boulia State School,State School,Open,,,Early Childhood,Year 6,Principal,02,18 July 2022,www.bouliass.eq.edu.au,(07) 4746 3151,N,(07) 4746 3307,,Templeton Street,Boulia,4829,Templeton Street,Boulia,,4829,North Queensland,Kennedy,Gregory,Boulia (S),Far Central West,315031410,Very Remote Australia,2022 February,34.00,,6.00,,49497976414,State,,139.910963,-22.908441
6134,Bounty Boulevard State School,State School,Open,,,Prep Year,Year 6,Principal,07,08 August 2022,www.bountyboulevardss.eq.edu.au,(07) 3482 1333,N,(07) 3482 1300,,195 Bounty Boulevard,North Lakes,4509,PO Box 1145,North Lakes,,4509,North Coast,Petrie,Bancroft,Moreton Bay (R),North Lakes - Mango Hill,314021390,Major Cities of Australia,2022 February,1174.00,,0.00,,57180983667,State,,153.008052,-27.215694
2065,Bowen State High School,State High School,Open,,,Year 7,Year 12,Principal,06,21 June 2022,www.bowenshs.eq.edu.au,(07) 4786 9888,N,(07) 4786 9800,,1-9 Argyle Park Road,Bowen,4805,1-9 Argyle Park Road,Bowen,,4805,North Queensland,Dawson,Burdekin,Whitsunday (R),Bowen,312011337,Outer Regional Australia,2022 February,724.00,,0.00,,77283271006,State,,148.235577,-19.999111
0010,Bowen State School,State School,Open,,,Early Childhood,Year 6,Principal,05,21 June 2022,www.bowenss.eq.edu.au,(07) 4786 9555,N,(07) 4786 9500,,29 Kennedy Street,Bowen,4805,PO Box 1157,Bowen,,4805,North Queensland,Dawson,Burdekin,Whitsunday (R),Bowen,312011337,Outer Regional Australia,2022 February,394.00,,4.00,,73190637875,State,,148.243824,-20.010151
0815,Bowenville State School,State School,Open,,,Prep Year,Year 6,Principal,01,01 April 2022,www.bowenvilless.eq.edu.au,(07) 4663 7127,N,(07) 4663 7189,,Irvingdale Road,Bowenville,4404,Irvingdale Road,Bowenville,,4404,Darling Downs South West,Groom,Condamine,Toowoomba (R),Jondaryan,307021180,Inner Regional Australia,2022 February,18.00,,0.00,,43970137828,State,,151.493977,-27.303739
1191,Boyne Island State School,State School,Open,,,Prep Year,Year 6,Principal,04,08 August 2022,www.boyneislandss.eq.edu.au,(07) 4979 9333,N,(07) 4979 9300,,151 Malpas Street,Boyne Island,4680,PO Box 3266,Tannum Sands,,4680,Central Queensland,Flynn,Gladstone,Gladstone (R),Boyne Island - Tannum Sands,308051531,Inner Regional Australia,2022 February,383.00,,0.00,,33684255665,State,,151.356403,-23.950159
1465,Boynewood State School,State School,Open,,,Prep Year,Year 6,Principal,02,06 May 2022,www.boynewoodss.eq.edu.au,(07) 4165 6192,N,(07) 4165 6105,,1138 Durong Road,Boynewood,4626,1138 Durong Road,Via Mundubbera,,4626,Central Queensland,Flynn,Callide,North Burnett (R),Gayndah - Mundubbera,319021503,Outer Regional Australia,2022 February,16.00,,0.00,,88707981250,State,,151.254846,-25.654999
2118,Bracken Ridge State High School,State High School,Open,,,Year 7,Year 12,Principal,06,10 August 2022,www.brackenridgeshs.eq.edu.au,(07) 3869 7222,N,,,68 Barfoot Street,Bracken Ridge,4017,PO Box 204,Sandgate,,4017,Metropolitan,Petrie,Sandgate,Brisbane (C),Bracken Ridge,302041041,Major Cities of Australia,2022 February,662.00,,0.00,,92907995950,State,,153.044096,-27.307357
0772,Bracken Ridge State School,State School,Open,,,Prep Year,Year 6,Principal,05,10 August 2022,www.brackenridgess.eq.edu.au,(07) 3869 7888,N,(07) 3869 7800,,1 Binburra Street,Bracken Ridge,4017,1 Binburra Street,Bracken Ridge,,4017,Metropolitan,Petrie,Sandgate,Brisbane (C),Bracken Ridge,302041041,Major Cities of Australia,2022 February,315.00,,0.00,,42263293575,State,,153.042058,-27.325195
0466,Brandon State School,State School,Open,,,Prep Year,Year 6,Principal,02,22 June 2022,www.brandonss.eq.edu.au,(07) 4782 5227,N,,,Drysdale Street,Brandon,4808,PO Box 27,Brandon,,4808,North Queensland,Dawson,Burdekin,Burdekin (S),Burdekin,318011461,Outer Regional Australia,2022 February,39.00,,0.00,,78830985439,State,,147.348591,-19.553714
1066,Branyan Road State School,State School,Open,,,Prep Year,Year 6,Principal,04,26 May 2022,www.branyanroadss.eq.edu.au,(07) 4131 3333,N,(07) 4131 3316,,Branyan Drive,Branyan,4670,PO Box 5844,Bundaberg West,,4670,North Coast,Hinkler,Bundaberg,Bundaberg (R),Branyan - Kensington,319011494,Inner Regional Australia,2022 February,471.00,,0.00,,53521924724,State,,152.293888,-24.892716
0571,Brassall State School,State School,Open,,,Prep Year,Year 6,Principal,06,13 May 2022,www.brassallss.eq.edu.au,(07) 3813 4333,N,(07) 3813 4300,,Pine Mountain Road,Brassall,4305,PO Box 5077,Brassall,,4305,Metropolitan,Blair,Ipswich West,Ipswich (C),Brassall,310031283,Major Cities of Australia,2022 February,679.00,,0.00,,27383562599,State,,152.748329,-27.588404
2173,Bray Park State High School,State High School,Open,,,Year 7,Year 12,Principal,07,08 August 2022,www.brayparkshs.eq.edu.au,(07) 3881 6666,N,(07) 3881 6600,,Lavarack Road,Bray Park,4500,PO Box 3168,Warner,,4500,North Coast,Dickson,Pine Rivers,Moreton Bay (R),Bray Park,314031391,Major Cities of Australia,2022 February,1451.00,,0.00,,18263759531,State,,152.961965,-27.299893
0339,Bray Park State School,State School,Open,,,Prep Year,Year 6,Principal,05,08 August 2022,www.brayparkss.eq.edu.au,(07) 3480 7333,N,(07) 3480 7300,,Hopetoun Street,Bray Park,4500,PO Box 181,Lawnton,,4501,North Coast,Dickson,Pine Rivers,Moreton Bay (R),Bray Park,314031391,Major Cities of Australia,2022 February,468.00,,0.00,,30531082637,State,,152.975298,-27.293504
2050,Bremer State High School,State High School,Open,,,Year 7,Year 12,Executive Principal,09,13 May 2022,www.bremershs.eq.edu.au,(07) 3810 9333,N,(07) 3812 9950,,133-153 Warwick Road,Ipswich,4305,PO Box 23,Booval,,4304,Metropolitan,Blair,Ipswich,Ipswich (C),Ipswich - Central,310031286,Major Cities of Australia,2022 February,1979.00,,0.00,,42737325124,State,,152.755332,-27.633359
2181,Bribie Island State High School,State High School,Open,,,Year 7,Year 12,Principal,07,08 August 2022,www.bribieislandshs.eq.edu.au,(07) 3400 2444,N,,,First Avenue,Bongaree,4507,PO Box 988,Bribie Island,,4507,North Coast,Longman,Pumicestone,Moreton Bay (R),Bribie Island,313011363,Inner Regional Australia,2022 February,1231.00,,0.00,,11971211388,State,,153.166077,-27.082965
0540,Bribie Island State School,State School,Open,,,Early Childhood,Year 6,Principal,05,08 August 2022,www.bribieislandss.eq.edu.au,(07) 3400 2333,N,,,31-63 First Avenue,Bongaree,4507,31-63 First Avenue,Bongaree,,4507,North Coast,Longman,Pumicestone,Moreton Bay (R),Bribie Island,313011363,Inner Regional Australia,2022 February,484.00,,7.00,,87554787716,State,,153.161896,-27.083259
1133,Brigalow State School,State School,Open,,,Prep Year,Year 6,Principal,02,20 May 2022,www.brigalowss.eq.edu.au,(07) 4665 2107,N,,,Warrego Highway,Brigalow,4412,Warrego Highway,Brigalow,,4412,Darling Downs South West,Maranoa,Callide,Western Downs (R),Chinchilla,307011172,Outer Regional Australia,2022 February,24.00,,0.00,,88141585671,State,,150.779251,-26.836451
1669,Brighton State School,State School,Open,,,Prep Year,Year 6,Principal,04,10 August 2022,www.brightonss.eq.edu.au,(07) 3631 9111,N,(07) 3631 9100,,2 North Road,Brighton,4017,PO Box 1116,Brighton,,4017,Metropolitan,Lilley,Sandgate,Brisbane (C),Brighton (Qld),302041042,Major Cities of Australia,2022 February,452.00,,0.00,,17423942405,State,,153.051226,-27.294286
7573,Brightwater State School,State School,Open,,,Prep Year,Year 6,Principal,06,10 June 2022,www.brightwaterss.eq.edu.au,(07) 5438 3111,N,(07) 5437 8348,,20 Dianella Drive,Mountain Creek,4557,20 Dianella Drive,Mountain Creek,,4557,North Coast,Fairfax,Buderim,Sunshine Coast (R),Mountain Creek,316011415,Major Cities of Australia,2022 February,910.00,,0.00,,81878267966,State,,153.111567,-26.709163
2104,Brisbane Bayside State College,State High School,Open,,,Year 7,Year 12,Principal,07,10 August 2022,www.brisbanebaysidesc.eq.edu.au,(07) 3893 5333,N,,,Network Drive,Wynnum West,4178,PO Box 326,Wynnum,,4178,Metropolitan,Bonner,Lytton,Brisbane (C),Wynnum West - Hemmant,301031021,Major Cities of Australia,2022 February,960.00,,0.00,,78540097008,State,,153.149996,-27.461983
0207,Brisbane Central State School,State School,Open,,,Prep Year,Year 6,Principal,05,10 August 2022,www.brisbanecentralss.eq.edu.au,(07) 3230 4333,N,,,85 Rogers Street,Spring Hill,4000,85 Rogers Street,Spring Hill,,4000,Metropolitan,Brisbane,McConnel,Brisbane (C),Spring Hill,305011111,Major Cities of Australia,2022 February,467.00,,0.00,,47739648593,State,,153.027198,-27.459289
3605,Brisbane School of Distance Education,School of Distance Education,Open,,,Early Childhood,Year 12,Executive Principal,09,10 August 2022,www.brisbanesde.eq.edu.au,(07) 3727 2444,N,(07) 33240671,,Cnr Stanley Street & Cavendish Road,Coorparoo,4151,GPO Box 1308,Brisbane,,4001,Metropolitan,Griffith,Greenslopes,Brisbane (C),Coorparoo,303021053,Major Cities of Australia,2022 February,3683.00,,160.00,,19762199035,State,,153.053816,-27.486555
A792,Brisbane South State Secondary College,State High School,Open,,,Year 7,Year 8,Executive Principal,10,10 August 2022,www.brisbanesouthssc.eq.edu.au,(07) 3013 5777,N,,,179 Annerley Road,Dutton Park,4102,179 Annerley Road,Dutton Park,,4102,Metropolitan,Griffith,South Brisbane,Brisbane (C),Fairfield - Dutton Park,303021054,Major Cities of Australia,2022 February,471.00,,0.00,,98830475094,State,,153.027570,-27.496030
2003,Brisbane State High School,State High School,Open,,,Year 7,Year 12,Executive Principal,10,10 August 2022,www.brisbaneshs.eq.edu.au,(07) 3291 4111,N,,,Cnr Cordelia and Glenelg Streets,South Brisbane,4101,Cnr Cordelia and Glenelg Streets,South Brisbane,,4101,Metropolitan,Griffith,South Brisbane,Brisbane (C),South Brisbane,305011110,Major Cities of Australia,2022 February,3417.00,,0.00,,22975729300,State,,153.018099,-27.481774
2294,Brisbane Youth Education and Training Centre,Educational Unit,Open,,,Year 5,Year 12,Principal,07,10 August 2022,www.byetc.eq.edu.au,(07) 3021 0771,N,(07) 3271 0770,,99 Wolston Park Road,Wacol,4076,PO Box 456,Archerfield,,4108,Metropolitan,Oxley,Inala,Brisbane (C),Wacol,310011276,Major Cities of Australia,2022 February,151.00,,0.00,,37283891059,State,,152.914984,-27.592473
1381,Broadbeach State School,State School,Open,,,Prep Year,Year 6,Principal,06,26 August 2022,www.broadbeachss.eq.edu.au,(07) 5570 8444,N,(07) 5570 8400,,1-19 Alexandra Avenue,Broadbeach,4218,PO Box 470,Broadbeach,,4218,South East,Moncrieff,Mermaid Beach,Gold Coast (C),Mermaid Beach - Broadbeach,309011227,Major Cities of Australia,2022 February,1135.00,,0.00,,63001724095,State,,153.434552,-28.035756
1071,Broadwater State School,State School,Open,,,Prep Year,Year 6,Principal,02,28 January 2022,www.broadwaterss.eq.edu.au,(07) 4683 6281,N,,,638 Texas Road,Broadwater,4380,638 Texas Road,Stanthorpe,,4380,Darling Downs South West,Maranoa,Southern Downs,Southern Downs (R),Stanthorpe Region,307031188,Outer Regional Australia,2022 February,28.00,,0.00,,29578208552,State,,151.878666,-28.655515
0016,Brookfield State School,State School,Open,,,Prep Year,Year 6,Principal,05,10 August 2022,www.brookfieldss.eq.edu.au,(07) 3374 7333,N,(07) 3374 7300,,36 Boscombe Road,Brookfield,4069,36 Boscombe Road,Brookfield,,4069,Metropolitan,Ryan,Moggill,Brisbane (C),Brookfield - Kenmore Hills,304021087,Major Cities of Australia,2022 February,483.00,,0.00,,33696836477,State,,152.913587,-27.495113
0311,Brookstead State School,State School,Open,,,Prep Year,Year 6,Principal,01,25 March 2022,www.brooksteadss.eq.edu.au,(07) 4693 9200,N,(07) 4693 9180,,30 Ware Street,Brookstead,4364,PO Box 8,Brookstead,,4364,Darling Downs South West,Groom,Condamine,Toowoomba (R),Pittsworth,307021182,Inner Regional Australia,2022 February,23.00,,0.00,,28616967765,State,,151.450522,-27.758010
1035,Brooweena State School,State School,Open,,,Early Childhood,Year 6,Principal,01,20 May 2022,www.brooweenass.eq.edu.au,(07) 4190 8333,N,,,Lahey Street,Brooweena,4620,Lahey Street,Brooweena,,4620,North Coast,Wide Bay,Maryborough,Fraser Coast (R),Maryborough Region - South,319051525,Inner Regional Australia,2022 February,13.00,,2.00,,95870432386,State,,152.261070,-25.598941
2164,Browns Plains State High School,State High School,Open,,,Year 7,Year 12,Principal,07,08 August 2022,www.brownsplainsshs.eq.edu.au,(07) 3802 6222,N,(07) 3802 6200,,Ivor Street,Browns Plains,4118,PO Box 366,Browns Plains,,4118,South East,Rankin,Woodridge,Logan (C),Browns Plains,311031312,Major Cities of Australia,2022 February,1116.00,,0.00,,26003669943,State,,153.054003,-27.669922
1922,Browns Plains State School,State School,Open,,,Early Childhood,Year 6,Principal,05,08 August 2022,www.brownsplainsss.eq.edu.au,(07) 3809 6222,N,,,1-29 Mayfair Drive,Browns Plains,4118,PO Box 216,Browns Plains,,4118,South East,Rankin,Woodridge,Logan (C),Browns Plains,311031312,Major Cities of Australia,2022 February,600.00,,35.00,,85147622593,State,,153.054570,-27.667726
1939,Bucasia State School,State School,Open,,,Prep Year,Year 6,Principal,04,16 June 2022,www.bucasiass.eq.edu.au,(07) 4969 7888,N,(07) 4969 7800,,13 Kemp Street,Bucasia,4750,PO Box 59,Rural View,,4740,Central Queensland,Dawson,Whitsunday,Mackay (R),Shoal Point - Bucasia,312021354,Inner Regional Australia,2022 February,453.00,,0.00,,51361152858,State,,149.157804,-21.030957
1888,Buddina State School,State School,Open,,,Prep Year,Year 6,Principal,06,27 May 2022,www.buddinass.eq.edu.au,(07) 5477 8888,N,(07) 5477 8800,,Cnr Tumut Street & Iluka Avenue,Buddina,4575,PO Box 50,Buddina,,4575,North Coast,Fisher,Kawana,Sunshine Coast (R),Buddina - Minyama,316021418,Major Cities of Australia,2022 February,748.00,,0.00,,21024153395,State,,153.133162,-26.702191
0223,Buderim Mountain State School,State School,Open,,,Prep Year,Year 6,Principal,06,10 June 2022,www.buderimmountainss.eq.edu.au,(07) 5477 2777,N,(07) 5477 2700,,8-42 Main Street,Buderim,4556,PO Box 201,Buderim,,4556,North Coast,Fairfax,Buderim,Sunshine Coast (R),Buderim - North,316011413,Major Cities of Australia,2022 February,1075.00,,0.00,,63299621425,State,,153.053898,-26.684588
1124,Builyan State School,State School,Open,,,Early Childhood,Year 6,Principal,01,08 August 2022,www.builyanss.eq.edu.au,(07) 4974 1181,Y,(07) 4974 1131,,Gladstone Road,Boyne Valley,4680,Gladstone Road,Builyan,,4680,Central Queensland,Flynn,Callide,Gladstone (R),Gladstone Hinterland,308051535,Outer Regional Australia,2022 February,9.00,,1.00,,58612126492,State,,151.385482,-24.529310
0017,Bulimba State School,State School,Open,,,Prep Year,Year 6,Principal,06,10 August 2022,www.bulimbass.eq.edu.au,(07) 3395 9666,N,(07) 3395 9600,,Oxford Street,Bulimba,4171,Oxford Street,Bulimba,,4171,Metropolitan,Griffith,Bulimba,Brisbane (C),Balmoral,305021113,Major Cities of Australia,2022 February,743.00,,0.00,,96752757826,State,,153.065050,-27.453162
0962,Bullyard State School,State School,Open,,,Prep Year,Year 6,Principal,02,08 August 2022,www.bullyardss.eq.edu.au,(07) 4157 4165,N,,,2358 Bucca Road,Bullyard,4671,2358 Bucca Road,Gin Gin,,4671,North Coast,Flynn,Callide,Bundaberg (R),Gin Gin,319021504,Inner Regional Australia,2022 February,39.00,,0.00,,52589576050,State,,152.061257,-24.950098
0018,Bundaberg Central State School,State School,Open,,,Prep Year,Year 6,Principal,02,26 May 2022,www.bundabergcentralss.eq.edu.au,(07) 4150 7666,N,(07) 4150 7600,,13 Crofton Street,Bundaberg Central,4670,13 Crofton Street,Bundaberg,,4670,North Coast,Hinkler,Bundaberg,Bundaberg (R),Bundaberg,319011495,Inner Regional Australia,2022 February,53.00,,0.00,,21659030629,State,,152.348234,-24.869865
0497,Bundaberg East State School,State School,Open,,,Prep Year,Year 6,Principal,05,26 May 2022,www.bundabergeastss.eq.edu.au,(07) 4132 6111,N,(07) 4132 6100,,33 Scotland Street,Bundaberg East,4670,33 Scotland Street,Bundaberg East,,4670,North Coast,Hinkler,Bundaberg,Bundaberg (R),Bundaberg East - Kalkie,319011496,Inner Regional Australia,2022 February,385.00,,0.00,,52742971803,State,,152.372561,-24.862297
2019,Bundaberg North State High School,State High School,Open,,,Year 7,Year 12,Principal,06,26 May 2022,www.bundabergnorthshs.eq.edu.au,(07) 4130 0222,N,,,9 Marks Street,Bundaberg North,4670,PO Box 7358,Bundaberg North,,4670,North Coast,Hinkler,Bundaberg,Bundaberg (R),Bundaberg North - Gooburrum,319011497,Inner Regional Australia,2022 February,734.00,,0.00,,57773667169,State,,152.339615,-24.849464
0161,Bundaberg North State School,State School,Open,,,Prep Year,Year 6,Principal,05,26 May 2022,www.bundabergnorthss.eq.edu.au,(07) 4150 1111,N,,,Mount Perry Road,Bundaberg North,4670,Mount Perry Road,Bundaberg North,,4670,North Coast,Hinkler,Bundaberg,Bundaberg (R),Bundaberg North - Gooburrum,319011497,Inner Regional Australia,2022 February,282.00,,0.00,,44117414636,State,,152.340454,-24.851878
0637,Bundaberg South State School,State School,Open,,,Prep Year,Year 6,Principal,03,26 May 2022,www.bundabergsouthss.eq.edu.au,(07) 4130 8333,N,,,Walla Street,Bundaberg South,4670,PO Box 4342,Bundaberg South,,4670,North Coast,Hinkler,Bundaberg,Bundaberg (R),Bundaberg,319011495,Inner Regional Australia,2022 February,161.00,,0.00,,88729113318,State,,152.360627,-24.871019
3029,Bundaberg Special School,Special School,Open,,,Prep Year,Year 12,Principal,06,26 May 2022,www.bundabergspecs.eq.edu.au,(07) 4155 5222,N,(07) 4155 5200,,Dr Mays Road,Norville,4670,PO Box 5688,Bundaberg West,,4670,North Coast,Hinkler,Bundaberg,Bundaberg (R),Svensson Heights - Norville,319011501,Inner Regional Australia,2022 February,109.00,,0.00,,31903884370,State,,152.338871,-24.886880
2004,Bundaberg State High School,State High School,Open,,,Year 7,Year 12,Principal,08,26 May 2022,www.bundabergshs.eq.edu.au,(07) 4154 5333,N,,,37 Maryborough Street,Bundaberg South,4670,PO Box 1041,Bundaberg,,4670,North Coast,Hinkler,Bundaberg,Bundaberg (R),Bundaberg,319011495,Inner Regional Australia,2022 February,1571.00,,0.00,,59690354105,State,,152.349889,-24.877041
1836,Bundaberg West State School,State School,Open,,,Prep Year,Year 6,Principal,04,26 May 2022,www.bundabergwestss.eq.edu.au,(07) 4132 8333,N,(07) 4151 6734,,George Street,Bundaberg West,4670,PO Box 4329,Bundaberg South,,4670,North Coast,Hinkler,Bundaberg,Bundaberg (R),Bundaberg,319011495,Inner Regional Australia,2022 February,203.00,,0.00,,37094864194,State,,152.333841,-24.876259
0019,Bundamba State School,State School,Open,,,Early Childhood,Year 6,Principal,05,13 May 2022,www.bundambass.eq.edu.au,(07) 3816 6666,N,(07) 3816 6600,,221 Brisbane Road,Bundamba,4304,221 Brisbane Road,Bundamba,,4304,Metropolitan,Blair,Ipswich,Ipswich (C),Bundamba,310031284,Major Cities of Australia,2022 February,444.00,,8.00,,19928785098,State,,152.804464,-27.611295
2130,Bundamba State Secondary College,State High School,Open,,,Year 7,Year 12,Principal,07,13 May 2022,www.bundambassc.eq.edu.au,(07) 3816 6333,N,(07) 3816 6300,,15a Naomai Street,Bundamba,4304,PO Box 311,Booval,,4304,Metropolitan,Blair,Bundamba,Ipswich (C),Bundamba,310031284,Major Cities of Australia,2022 February,950.00,,0.00,,89341987144,State,,152.813679,-27.614916
1508,Bungunya State School,State School,Open,,,Prep Year,Year 6,Principal,01,29 April 2022,www.bungunyass.eq.edu.au,(07) 4677 1281,N,(07) 4677 1143,,George Street,Bungunya,4494,George Street,Bungunya,,4494,Darling Downs South West,Maranoa,Southern Downs,Goondiwindi (R),Inglewood - Waggamba,307011174,Remote Australia,2022 February,17.00,,0.00,,70048588167,State,,149.654509,-28.427099
0853,Bunker's Hill State School,State School,Open,,,Prep Year,Year 6,Principal,03,25 March 2022,www.bunkhillss.eq.edu.au,(07) 4698 5333,N,,,315 Bunkers Hill School Road,Westbrook,4350,315 Bunkers Hill School Road,Westbrook,via Toowoomba,4350,Darling Downs South West,Groom,Condamine,Toowoomba (R),Toowoomba - West,317011458,Inner Regional Australia,2022 February,256.00,,0.00,,70461790212,State,,151.833327,-27.606010
0894,Buranda State School,State School,Open,,,Prep Year,Year 6,Principal,04,10 August 2022,www.burandass.eq.edu.au,(07) 3435 1222,N,,,24 Cowley Street,Woolloongabba,4102,24 Cowley Street,Buranda,,4102,Metropolitan,Griffith,South Brisbane,Brisbane (C),Woolloongabba,303021058,Major Cities of Australia,2022 February,261.00,,0.00,,37768500641,State,,153.042670,-27.497171
3003,Burdekin School,Special School,Open,,,Early Childhood,Year 12,Principal,03,22 June 2022,www.burdekinspecs.eq.edu.au,(07) 4790 3111,N,,,159 Young Street,Ayr,4807,PO Box 908,Ayr,,4807,North Queensland,Dawson,Burdekin,Burdekin (S),Ayr,318011460,Outer Regional Australia,2022 February,15.00,,4.00,,52192116820,State,,147.407973,-19.578425
0530,Burketown State School,State School,Open,,,Early Childhood,Year 6,Principal,02,01 November 2022,www.burketownss.eq.edu.au,(07) 4745 5124,N,(07) 4745 5182,,Beames Street,Burketown,4830,PO Box 81,Burketown,,4830,North Queensland,Kennedy,Traeger,Burke (S),Carpentaria,315021404,Very Remote Australia,2022 February,21.00,,6.00,,77405647085,State,,139.547822,-17.738926
1568,Burleigh Heads State School,State School,Open,,,Early Childhood,Year 6,Principal,05,26 August 2022,www.burlheadss.eq.edu.au,(07) 5568 6666,N,(07) 5568 6600,,Lower Gold Coast Highway,Burleigh Heads,4220,PO Box 85,Burleigh Heads,,4220,South East,Mcpherson,Burleigh,Gold Coast (C),Burleigh Heads,309011225,Major Cities of Australia,2022 February,503.00,,26.00,,74308394459,State,,153.449399,-28.086874
0319,Burnett Heads State School,State School,Open,,,Prep Year,Year 6,Principal,03,26 May 2022,www.burnettheadsss.eq.edu.au,(07) 4130 2333,N,(07) 4130 2300,,Burnett Heads Road,Burnett Heads,4670,PO Box 9008,Burnett Heads,Bundaberg,4670,North Coast,Hinkler,Burnett,Bundaberg (R),Bargara - Burnett Heads,319011493,Inner Regional Australia,2022 February,92.00,,0.00,,75113889207,State,,152.414509,-24.771725
2089,Burnett State College,State High School,Open,,,Year 7,Year 12,Principal,04,08 August 2022,www.burnettsc.eq.edu.au,(07) 4161 3888,N,,,65 Pineapple Street,Gayndah,4625,PO Box 111,Gayndah,,4625,Central Queensland,Flynn,Callide,North Burnett (R),Gayndah - Mundubbera,319021503,Outer Regional Australia,2022 February,193.00,,0.00,,88305760877,State,,151.606321,-25.631898
2145,Burnside State High School,State High School,Open,,,Year 7,Year 12,Principal,07,10 June 2022,www.burnsideshs.eq.edu.au,(07) 5459 7333,N,,,Blaxland Road,Burnside,4560,SCMC Box 5247,Nambour,,4560,North Coast,Fairfax,Nicklin,Sunshine Coast (R),Nambour,316071548,Major Cities of Australia,2022 February,864.00,,0.00,,83970360553,State,,152.947268,-26.630401
1873,Burnside State School,State School,Open,,,Early Childhood,Year 6,Principal,05,10 June 2022,www.burnsidess.eq.edu.au,(07) 5441 0888,N,(07) 5441 0800,,51 Blaxland Road,Burnside,4560,PO Box 5063,SCMC,Nambour,4560,North Coast,Fairfax,Nicklin,Sunshine Coast (R),Nambour,316071548,Major Cities of Australia,2022 February,391.00,,17.00,,76650885705,State,,152.947573,-26.630419
5553,Burpengary Meadows State School,State School,Open,,,Prep Year,Year 6,Principal,05,08 August 2022,www.burpengarymeadowsss.eq.edu.au,(07) 3491 4333,N,(07) 3491 4300,,153 Rowley Road,Burpengary,4505,153 Rowley Road,Burpengary,,4505,North Coast,Longman,Morayfield,Moreton Bay (R),Burpengary,313041372,Major Cities of Australia,2022 February,694.00,,0.00,,90229980516,State,,152.938212,-27.159893
0601,Burpengary State School,State School,Open,,,Prep Year,Year 6,Principal,06,08 August 2022,www.burpengaryss.eq.edu.au,(07) 3491 0333,N,,,35 Station Road,Burpengary,4505,PO Box 270,Burpengary,,4505,North Coast,Longman,Kurwongbah,Moreton Bay (R),Burpengary,313041372,Major Cities of Australia,2022 February,882.00,,0.00,,20789166753,State,,152.959036,-27.157727
9676,Burpengary State Secondary College,State High School,Open,,,Year 7,Year 12,Principal,07,08 August 2022,www.burpengaryssc.eq.edu.au,(07) 3481 6333,N,,,196 Pitt Road,Burpengary,4505,PO Box 693,Burpengary,,4505,North Coast,Longman,Kurwongbah,Moreton Bay (R),Burpengary,313041372,Major Cities of Australia,2022 February,1122.00,,0.00,,20278920229,State,,152.977393,-27.170609
1129,Burra Burri State School,State School,Open,,,Prep Year,Year 6,Principal,01,20 May 2022,www.burraburriss.eq.edu.au,(07) 4668 8718,N,(07) 4668 8766,,3173 Burra Burri Creek Road,Burra Burri,4413,MS 708,Jandowae,,4410,Darling Downs South West,Maranoa,Callide,Western Downs (R),Chinchilla,307011172,Outer Regional Australia,,,,,,78889782654,State,,151.023730,-26.509360
1966,Burrowes State School,State School,Open,,,Prep Year,Year 6,Principal,06,08 August 2022,www.burrowesss.eq.edu.au,(07) 3802 3333,N,(07) 3803 4898,,Third Avenue,Marsden,4132,Third Avenue,Marsden,,4132,South East,Rankin,Woodridge,Logan (C),Marsden,311031317,Major Cities of Australia,2022 February,772.00,,0.00,,54826122713,State,,153.089804,-27.676279
1427,Butchers Creek State School,State School,Open,,,Prep Year,Year 6,Principal,01,28 June 2022,www.butcherscreekss.eq.edu.au,(07) 4096 8135,N,(07) 4096 8327,,Cnr Topaz & Gadaloff Roads,Butchers Creek,4885,MS 1575,Malanda,,4885,Far North Queensland,Kennedy,Hill,Tablelands (R),Malanda - Yungaburra,306051169,Outer Regional Australia,2022 February,15.00,,0.00,,92960959409,State,,145.692288,-17.361216
0379,Bwgcolman Community School,Community School,Open,,,Early Childhood,Year 12,Principal,05,04 July 2022,www.bwgcolmancs.eq.edu.au,(07) 4770 0333,N,(07) 4770 0300,,Creek Road,Palm Island,4816,c/- Post Office,Palm Island,,4816,North Queensland,Herbert,Townsville,Palm Island (S),Palm Island,318011466,Remote Australia,2022 February,306.00,,24.00,,64365469498,State,,146.578199,-18.736204
1318,Byfield State School,State School,Open,,,Early Childhood,Year 6,Principal,02,10 June 2022,www.byfieldss.eq.edu.au,(07) 4935 1140,N,(07) 4935 1260,,2233 Byfield Road,Byfield,4703,2233 Byfield Road,Byfield,,4703,Central Queensland,Capricornia,Keppel,Livingstone (S),Rockhampton Region - North,308031219,Outer Regional Australia,2022 February,24.00,,2.00,,73706319645,State,,150.646190,-22.841252
1047,Bymount East State School,State School,Open,,,Prep Year,Year 6,Principal,01,06 May 2022,www.bymounteastss.eq.edu.au,(07) 4623 3767,Y,(07) 4623 3716,,6441 Carnarvon Highway,Bymount,4455,MS 960,Roma,,4455,Darling Downs South West,Maranoa,Warrego,Maranoa (R),Roma Region,307011177,Remote Australia,2022 February,10.00,,0.00,,40346363408,State,,148.602690,-26.063808
1903,Caboolture East State School,State School,Open,,,Early Childhood,Year 6,Principal,06,08 August 2022,cabooltureeastss.eq.edu.au,(07) 5431 6111,N,(07) 5431 6100,,44 Manley Street,Caboolture,4510,PO Box 1492,Caboolture,,4510,North Coast,Longman,Morayfield,Moreton Bay (R),Caboolture,313021365,Major Cities of Australia,2022 February,449.00,,94.00,,93293117600,State,,152.960977,-27.077547
3045,Caboolture Special School,Special School,Open,,,Prep Year,Year 6,Principal,07,08 August 2022,www.caboolturespecs.eq.edu.au,(07) 5431 4444,N,(07) 5431 4400,,Torrens Road,Caboolture South,4510,PO Box 108,Morayfield,,4506,North Coast,Longman,Morayfield,Moreton Bay (R),Caboolture - South,313021366,Major Cities of Australia,2022 February,120.00,,0.00,,75586516577,State,,152.943823,-27.096752
2066,Caboolture State High School,State High School,Open,,,Year 7,Year 12,Principal,08,08 August 2022,www.cabooltureshs.eq.edu.au,(07) 5498 0111,N,,,Lee Street,Caboolture,4510,Lee Street,Caboolture,,4510,North Coast,Longman,Morayfield,Moreton Bay (R),Caboolture,313021365,Major Cities of Australia,2022 February,1481.00,,0.00,,22792530028,State,,152.961074,-27.084139
0369,Caboolture State School,State School,Open,,,Prep Year,Year 6,Principal,05,08 August 2022,www.caboolturess.eq.edu.au,(07) 5431 4555,N,(07) 5431 4500,,12 George Street,Caboolture,4510,12 George Street,Caboolture,,4510,North Coast,Longman,Morayfield,Moreton Bay (R),Caboolture,313021365,Major Cities of Australia,2022 February,376.00,,0.00,,39257802739,State,,152.948729,-27.082517
3601,Cairns School of Distance Education,School of Distance Education,Open,,,Prep Year,Year 12,Principal,08,15 July 2022,www.cairnssde.eq.edu.au,(07) 4080 9111,N,(07) 4080 9100,,62 Hoare Street,Manunda,4870,PO Box 7092,Cairns,,4870,Far North Queensland,Leichhardt,Cairns,Cairns (R),Manunda,306021152,Outer Regional Australia,2022 February,4213.00,,0.00,,13053511464,State,,145.750777,-16.923590
2005,Cairns State High School,State High School,Open,,,Year 7,Year 12,Executive Principal,08,15 July 2022,www.cairnsshs.eq.edu.au,(07) 4050 3033,N,,,Cnr Sheridan & Upward Streets,Cairns North,4870,PO Box 5643 MSO,Cairns,,4870,Far North Queensland,Leichhardt,Cairns,Cairns (R),Cairns City,306021145,Outer Regional Australia,2022 February,1585.00,,0.00,,71986954203,State,,145.768025,-16.916645
A029,Cairns State Special School,Special School,Open,,,Prep Year,Year 12,Principal,05,15 July 2022,www.cairnsstatespecs.eq.edu.au,(07) 4036 7444,N,,,Windarra Street,Woree,4868,Windarra Street,Woree,,4868,Far North Queensland,Leichhardt,Mulgrave,Cairns (R),Woree,306021157,Outer Regional Australia,2022 February,104.00,,0.00,,34743797236,State,,145.740200,-16.963100
1522,Cairns West State School,State School,Open,,,Prep Year,Year 6,Principal,06,15 July 2022,www.cairnswestss.eq.edu.au,(07) 4037 9777,N,,,Mayers Street,Manunda,4870,PO Box 97M,Manunda,,4870,Far North Queensland,Leichhardt,Cairns,Cairns (R),Manunda,306021152,Outer Regional Australia,2022 February,595.00,,0.00,,64957433980,State,,145.742280,-16.923690
1699,Calamvale Community College,State School,Open,,,Prep Year,Year 12,Executive Principal,10,10 August 2022,www.calamvalecc.eq.edu.au,(07) 3712 6333,N,(07) 3712 6300,,11 Hamish Street,Calamvale,4116,PO Box 1653,Sunnybank Hills,,4109,Metropolitan,Rankin,Algester,Brisbane (C),Calamvale - Stretton,303051073,Major Cities of Australia,2022 February,2461.00,,0.00,,46523782930,State,,153.042899,-27.625696
3055,Calamvale Special School,Special School,Open,,,Prep Year,Year 12,Principal,07,10 August 2022,www.calamvalespecialschool.eq.edu.au,(07) 3712 5555,N,(07) 3712 5500,,29 Nottingham Road,Calamvale,4116,29 Nottingham Road,Calamvale,,4116,Metropolitan,Rankin,Algester,Brisbane (C),Calamvale - Stretton,303051073,Major Cities of Australia,2022 February,187.00,,0.00,,65242303155,State,,153.044867,-27.630062
1550,Calen District State College,State School,Open,,,Prep Year,Year 12,Principal,04,16 June 2022,www.calendsc.eq.edu.au,(07) 4949 7333,N,,,38 McIntyre Street,Calen,4798,c/- Post Office,Calen,,4798,Central Queensland,Dawson,Whitsunday,Mackay (R),Seaforth - Calen,312021353,Outer Regional Australia,2022 February,201.00,,0.00,,75371345213,State,,148.770455,-20.899303
9790,Calliope State High School,State High School,Open,,,Year 7,Year 10,Principal,05,08 August 2022,www.calliopeshs.eq.edu.au,(07) 4975 9777,N,,,55 Don Cameron Drive,Calliope,4680,Po Box 412,Calliope,,4680,Central Queensland,Flynn,Callide,Gladstone (R),Gladstone Hinterland,308051535,Inner Regional Australia,2022 February,372.00,,0.00,,62404931680,State,,151.214958,-23.999774
0020,Calliope State School,State School,Open,,,Prep Year,Year 6,Principal,05,08 August 2022,www.calliopess.eq.edu.au,(07) 4975 8333,N,(07) 4975 6437,,Stirrat Street,Calliope,4680,PO Box 232,Calliope,,4680,Central Queensland,Flynn,Callide,Gladstone (R),Gladstone Hinterland,308051535,Inner Regional Australia,2022 February,622.00,,0.00,,57395070798,State,,151.202922,-24.004837
2116,Caloundra State High School,State High School,Open,,,Year 7,Year 12,Principal,07,27 May 2022,www.caloundrashs.eq.edu.au,(07) 5436 8444,N,,,88 Queen Street,Caloundra,4551,88 Queen Street,Caloundra,,4551,North Coast,Fisher,Caloundra,Sunshine Coast (R),Caloundra - Kings Beach,316021419,Major Cities of Australia,2022 February,1423.00,,0.00,,52664744190,State,,153.125545,-26.793826
0859,Caloundra State School,State School,Open,,,Prep Year,Year 6,Principal,05,27 May 2022,www.caloundrass.eq.edu.au,(07) 5439 4200,N,(07) 5439 4222,,56A Queen Street,Caloundra,4551,56A Queen Street,Caloundra,,4551,North Coast,Fisher,Caloundra,Sunshine Coast (R),Caloundra - Kings Beach,316021419,Major Cities of Australia,2022 February,506.00,,0.00,,90466247553,State,,153.135010,-26.797111
0196,Cambooya State School,State School,Open,,,Prep Year,Year 6,Principal,03,25 March 2022,www.cambooyass.eq.edu.au,(07) 4612 2333,N,,,Harrow Street,Cambooya,4358,Harrow Street,Cambooya,,4358,Darling Downs South West,Groom,Condamine,Toowoomba (R),Cambooya - Wyreema,317011445,Inner Regional Australia,2022 February,150.00,,0.00,,54971454619,State,,151.866872,-27.708783
0483,Cameron Downs State School,State School,Open,,,Early Childhood,Year 6,Principal,01,27 May 2022,www.camerondownsss.eq.edu.au,(07) 4741 7250,N,(07) 4741 7239,Cameron Downs Station,Hughenden-Muttaburra Road,Tangorin,4821,PMB Cameron Downs Station,Hughenden,,4821,North Queensland,Kennedy,Traeger,Flinders (S),Northern Highlands,315021407,Very Remote Australia,2022 February,9.00,,2.00,,23291476501,State,,144.278845,-21.374579
0352,Camira State School,State School,Open,,,Prep Year,Year 6,Principal,05,13 May 2022,www.camirass.eq.edu.au,(07) 3381 4888,N,(07) 3381 4800,,184-202 Old Logan Road,Camira,4300,PO Box 2185,Gailes,,4300,Metropolitan,Oxley,Jordan,Ipswich (C),Camira - Gailes,310041297,Major Cities of Australia,2022 February,691.00,,0.00,,99870757641,State,,152.914644,-27.621316
0714,Camooweal State School,State School,Open,,,Early Childhood,Year 6,Principal,02,17 June 2022,www.camoowealss.eq.edu.au,(07) 4748 2127,N,,,Nowranie Street,Camooweal,4828,PO Box 9,Camooweal,,4828,North Queensland,Kennedy,Traeger,Mount Isa (C),Mount Isa Region,315021406,Very Remote Australia,2022 February,33.00,,6.00,,82487075819,State,,138.120361,-19.918829
1854,Camp Hill State Infants and Primary School,State School,Open,,,Prep Year,Year 6,Principal,06,10 August 2022,www.camphillipss.eq.edu.au,(07) 3900 9333,N,,,676 Old Cleveland Road,Camp Hill,4152,676 Old Cleveland Road,Camp Hill,,4152,Metropolitan,Griffith,Chatsworth,Brisbane (C),Camp Hill,303011047,Major Cities of Australia,2022 February,832.00,,0.00,,33502575403,State,,153.078576,-27.492941
1967,Caningeraba State School,State School,Open,,,Prep Year,Year 6,Principal,06,26 August 2022,www.caningerabass.eq.edu.au,(07) 5568 6333,N,(07) 5568 6300,,Whistler Drive,Burleigh Waters,4220,Whistler Drive,Burleigh Waters,,4220,South East,Mcpherson,Burleigh,Gold Coast (C),Burleigh Waters,309011226,Major Cities of Australia,2022 February,1104.00,,0.00,,19351529936,State,,153.430206,-28.085348
1476,Cannon Hill State School,State School,Open,,,Prep Year,Year 6,Principal,04,10 August 2022,www.cannonhillss.eq.edu.au,(07) 3902 3333,N,(07) 3902 3300,,845 Wynnum Road,Cannon Hill,4170,845 Wynnum Road,Cannon Hill,,4170,Metropolitan,Griffith,Bulimba,Brisbane (C),Cannon Hill,303011048,Major Cities of Australia,2022 February,294.00,,0.00,,54028610736,State,,153.083826,-27.468177
0589,Cannonvale State School,State School,Open,,,Prep Year,Year 6,Principal,06,17 June 2022,www.cannonvaless.eq.edu.au,(07) 4946 2333,N,(07) 4946 2300,,56 Coral Esplanade,Cannonvale,4802,PO Box 117,Cannonvale,,4802,North Queensland,Dawson,Whitsunday,Whitsunday (R),Airlie - Whitsundays,312031359,Outer Regional Australia,2022 February,847.00,,0.00,,47813905327,State,,148.699670,-20.274758
0566,Canungra State School,State School,Open,,,Prep Year,Year 6,Principal,04,08 August 2022,www.canungrass.eq.edu.au,(07) 5541 6111,N,(07) 5541 6100,,Christie Street,Canungra,4275,Christie Street,Canungra,,4275,South East,Wright,Scenic Rim,Scenic Rim (R),Tamborine - Canungra,309041242,Inner Regional Australia,2022 February,377.00,,0.00,,78734036615,State,,153.162365,-28.016911
5534,Capalaba State College,State School,Open,,,Early Childhood,Year 12,Principal,07,08 August 2022,www.capalabasc.eq.edu.au,(07) 3823 9111,N,(07) 3823 9100,,School Road,Capalaba,4157,PO Box 27,Capalaba,,4157,South East,Bowman,Capalaba,Redland (C),Capalaba,301011004,Major Cities of Australia,2022 February,1028.00,,32.00,,80384494511,State,,153.189826,-27.536410
8009,Cape York Aboriginal Australian Academy,State School,Open,,,Prep Year,Year 6,Principal,04,15 July 2022,www.cyaaa.eq.edu.au,(07) 4060 9888,N,(07) 4060 9800,,Cnr Thiele & Poland Streets,Hope Vale,4895," c/- Hope Vale Post Office",Hope Vale via Cooktown,,4895,Far North Queensland,Leichhardt,Cook,Hope Vale (S),Cape York,315011396,Remote Australia,2022 February,170.00,,0.00,,12042763910,State,,145.108091,-15.295258
2182,Capella State High School,State High School,Open,,,Year 7,Year 12,Principal,03,20 May 2022,www.capellashs.eq.edu.au,(07) 4988 7333,N,(07) 4988 7300,,35-45 Gordon Street,Capella,4723,PO Box 195,Capella,,4723,Central Queensland,Flynn,Gregory,Central Highlands (R),Central Highlands - West,308011191,Remote Australia,2022 February,139.00,,0.00,,52538984330,State,,148.030481,-23.088158
0410,Capella State School,State School,Open,,,Prep Year,Year 6,Principal,03,20 May 2022,www.capellass.eq.edu.au,(07) 4988 7111,N,(07) 4986 4634,,41 Huntley Street,Capella,4723,PO Box 94,Capella,,4723,Central Queensland,Flynn,Gregory,Central Highlands (R),Central Highlands - West,308011191,Remote Australia,2022 February,166.00,,0.00,,12466713509,State,,148.024701,-23.082625
3612,Capricornia (Emerald Campus) School of Distance Education,School of Distance Education,Open,,,Prep Year,Year 12,Principal,07,01 June 2022,www.capricorniasde.eq.edu.au,(07) 4987 9100,N,(07) 4931 4899,,Cnr Gray & Gladstone Streets,Emerald,4720,PO Box 1616,Emerald,,4720,Central Queensland,Flynn,Gregory,Central Highlands (R),Emerald,308011192,Outer Regional Australia,2022 February,5628.00,,0.00,,69227107373,State,,148.152073,-23.532392
0927,Caravonica State School,State School,Open,,,Prep Year,Year 6,Principal,05,15 July 2022,www.caravonicass.eq.edu.au,(07) 4037 4333,N,(07) 4037 4300,,Lot 3 Kamerunga Road,Caravonica,4878,PO Box 198,Smithfield,,4878,Far North Queensland,Leichhardt,Barron River,Cairns (R),Redlynch,306011141,Outer Regional Australia,2022 February,563.00,,0.00,,72533817802,State,,145.695369,-16.852966
0278,Carbrook State School,State School,Open,,,Prep Year,Year 6,Principal,05,08 August 2022,www.carbrookss.eq.edu.au,(07) 3209 0888,N,(07) 3209 0800,,Redland Bay Road,Carbrook,4130,Redland Bay Road,Carbrook,,4130,South East,Forde,Macalister,Logan (C),Cornubia - Carbrook,311051324,Major Cities of Australia,2022 February,385.00,,0.00,,63242141001,State,,153.235233,-27.678064
0136,Cardwell State School,State School,Open,,,Prep Year,Year 6,Principal,02,22 July 2022,www.cardwellss.eq.edu.au,(07) 4063 6222,N,,,43 Victoria Street,Cardwell,4849,43 Victoria Street,Cardwell,,4849,Far North Queensland,Kennedy,Hinchinbrook,Cassowary Coast (R),Tully,306031161,Outer Regional Australia,2022 February,83.00,,0.00,,58728201912,State,,146.030850,-18.268797
1552,Carina State School,State School,Open,,,Prep Year,Year 6,Principal,04,10 August 2022,www.carinass.eq.edu.au,(07) 3900 9666,N,,,1413 Creek Road,Carindale,4152,1413 Creek Road,Carina,,4152,Metropolitan,Bonner,Chatsworth,Brisbane (C),Carindale,303011051,Major Cities of Australia,2022 February,314.00,,0.00,,12445257133,State,,153.101859,-27.493301
1806,Carmila State School,State School,Open,,,Early Childhood,Year 6,Principal,02,16 June 2022,www.carmilass.eq.edu.au,(07) 4950 2137,N,,,Carmila West Road,Carmila,4739,Carmila West Road,Carmila,,4739,Central Queensland,Capricornia,Mirani,Isaac (R),Broadsound - Nebo,312011338,Outer Regional Australia,2022 February,26.00,,4.00,,74882731796,State,,149.403581,-21.913583
1044,Carole Park State School,State School,Open,,,Prep Year,Year 6,Principal,03,10 August 2022,www.caroleparkss.eq.edu.au,(07) 3718 5333,N,(07) 3718 5300,,260 Waterford Road,Wacol,4076,PO Box 186,Carole Park,,4300,Metropolitan,Oxley,Inala,Brisbane (C),Wacol,310011276,Major Cities of Australia,2022 February,164.00,,0.00,,11085847929,State,,152.933619,-27.608040
2025,Cavendish Road State High School,State High School,Open,,,Year 7,Year 12,Executive Principal,08,10 August 2022,www.cavendishroadshs.eq.edu.au,(07) 3394 0777,N,(07) 3394 0700,,Cnr Cavendish & Holland Roads,Holland Park,4121,PO Box 156,Holland Park,,4121,Metropolitan,Griffith,Greenslopes,Brisbane (C),Holland Park,303021056,Major Cities of Australia,2022 February,2056.00,,0.00,,79632711527,State,,153.072984,-27.516824
0135,Cawarral State School,State School,Open,,,Prep Year,Year 6,Principal,02,10 June 2022,www.cawarralss.eq.edu.au,(07) 4920 9333,N,(07) 4935 4202,,125 Annie Drive,Cawarral,4702,125 Annie Drive,Cawarral,,4702,Central Queensland,Capricornia,Keppel,Livingstone (S),Rockhampton Region - East,308031218,Inner Regional Australia,2022 February,93.00,,0.00,,64095086919,State,,150.675628,-23.253978
0734,Cecil Plains State School,State School,Open,,,Prep Year,Year 9,Principal,03,25 March 2022,www.cecilplainsss.eq.edu.au,(07) 4660 9333,N,,,Taylor Street,Cecil Plains,4407,PO Box 41,Cecil Plains,,4407,Darling Downs South West,Maranoa,Southern Downs,Toowoomba (R),Millmerran,307021181,Outer Regional Australia,2022 February,54.00,,0.00,,73877484191,State,,151.192818,-27.532321
0160,Cedar Creek State School,State School,Open,,,Prep Year,Year 6,Principal,04,08 August 2022,www.cedarcreekss.eq.edu.au,(07) 5549 7333,N,,,1a Chardon Bridge Road,Cedar Creek,4207,1a Chardon Bridge Road,Cedar Creek,,4207,South East,Forde,Coomera,Gold Coast (C),Upper Coomera - Willow Vale,309071258,Inner Regional Australia,2022 February,295.00,,0.00,,61655809002,State,,153.179275,-27.827597
2121,Centenary Heights State High School,State High School,Open,,,Year 7,Year 12,Principal,08,25 March 2022,www.centheigshs.eq.edu.au,(07) 4636 7500,N,,,60 Ramsay Street,Centenary Heights,4350,60 Ramsay Street,Centenary Heights,,4350,Darling Downs South West,Groom,Toowoomba South,Toowoomba (R),Toowoomba - Central,317011456,Inner Regional Australia,2022 February,1761.00,,0.00,,84306266898,State,,151.963728,-27.579430
1668,Centenary State High School,State High School,Open,,,Year 7,Year 12,Principal,08,10 August 2022,www.centenaryshs.eq.edu.au,(07) 3373 4555,N,,,1 Moolanda Street,Jindalee,4074,PO Box 321,Mount Ommaney,,4074,Metropolitan,Oxley,Mount Ommaney,Brisbane (C),Jindalee - Mount Ommaney,304011081,Major Cities of Australia,2022 February,1720.00,,0.00,,89313963531,State,,152.940337,-27.538682
2282,Chancellor State College,State School,Open,,,Prep Year,Year 12,Executive Principal,10,10 June 2022,www.chancellorsc.eq.edu.au,(07) 5453 3222,N,,Secondary Campus,164 Sippy Downs Drive,Sippy Downs,4556,PO Box 7066,Sippy Downs,,4556,North Coast,Fisher,Buderim,Sunshine Coast (R),Sippy Downs,316011416,Major Cities of Australia,2022 February,3073.00,,0.00,,56536005934,State,,153.068575,-26.714808
1872,Chapel Hill State School,State School,Open,,,Prep Year,Year 6,Principal,06,10 August 2022,www.chapelhillss.eq.edu.au,(07) 3871 4888,N,(07) 3871 4800,,Ironbark Road,Chapel Hill,4069,PO Box 533,Kenmore,,4069,Metropolitan,Ryan,Moggill,Brisbane (C),Chapel Hill,304021088,Major Cities of Australia,2022 February,815.00,,0.00,,58995484006,State,,152.944927,-27.499336
3602,Charleville School of Distance Education,School of Distance Education,Open,,,Prep Year,Year 10,Principal,04,13 May 2022,www.charlevillesde.eq.edu.au,(07) 4656 8999,N,,,Parry Street,Charleville,4470,Parry Street,Charleville,,4470,Darling Downs South West,Maranoa,Warrego,Murweh (S),Charleville,315031409,Very Remote Australia,2022 February,154.00,,0.00,,41851165089,State,,146.258634,-26.395083
2068,Charleville State High School,State High School,Open,,,Early Childhood,Year 12,Principal,05,13 May 2022,www.charlevilleshs.eq.edu.au,(07) 4656 8888,N,(07) 4656 8800,,Cnr Partridge & Hunter Streets,Charleville,4470,PO Box 314,Charleville,,4470,Darling Downs South West,Maranoa,Warrego,Murweh (S),Charleville,315031409,Very Remote Australia,2022 February,244.00,,0.00,,33549074155,State,,146.257420,-26.397435
0185,Charleville State School,State School,Open,,,Early Childhood,Year 6,Principal,03,13 May 2022,www.charlevilless.eq.edu.au,(07) 4656 8222,N,(07) 4656 8200,,Wills Street,Charleville,4470,PO Box 312,Charleville,,4470,Darling Downs South West,Maranoa,Warrego,Murweh (S),Charleville,315031409,Very Remote Australia,2022 February,161.00,,0.00,,89075109488,State,,146.242380,-26.404879
0215,Charters Towers Central State School,State School,Open,,,Early Childhood,Year 6,Principal,03,26 July 2022,www.charterstowerscentralss.eq.edu.au,(07) 4756 2333,N,(07) 4787 2481,,High Street,Charters Towers,4820,PO Box 64,Charters Towers,,4820,North Queensland,Kennedy,Traeger,Charters Towers (R),Charters Towers,318011462,Outer Regional Australia,2022 February,143.00,,1.00,,20660732299,State,,146.263198,-20.080199
3610,Charters Towers School of Distance Education,School of Distance Education,Open,,,Prep Year,Year 12,Principal,07,26 July 2022,www.charterstowerssde.eq.edu.au,(07) 4754 6888,N,(07) 4754 6800,,15-23 Brisk Street,Millchester,4820,PO Box 685,Charters Towers,,4820,North Queensland,Kennedy,Traeger,Charters Towers (R),Charters Towers,318011462,Outer Regional Australia,2022 February,2843.00,,0.00,,85860181354,State,,146.268249,-20.089473
2006,Charters Towers State High School,State High School,Open,,,Year 7,Year 12,Principal,05,26 July 2022,www.charterstowersshs.eq.edu.au,(07) 4754 6555,N,,,97-113 Towers Street,Charters Towers,4820,PO Box 234,Charters Towers,,4820,North Queensland,Kennedy,Traeger,Charters Towers (R),Charters Towers,318011462,Outer Regional Australia,2022 February,416.00,,0.00,,40494430479,State,,146.258473,-20.080196
1924,Chatswood Hills State School,State School,Open,,,Prep Year,Year 6,Principal,05,08 August 2022,www.chatswoodhillsss.eq.edu.au,(07) 3489 2222,N,(07) 3489 2200,,Raleigh Street,Springwood,4127,PO Box 330,Springwood,,4127,South East,Rankin,Springwood,Logan (C),Springwood,311061334,Major Cities of Australia,2022 February,585.00,,0.00,,97913893118,State,,153.137454,-27.628184
0915,Chatsworth State School,State School,Open,,,Prep Year,Year 6,Principal,04,13 May 2022,www.chatsworthss.eq.edu.au,(07) 5481 3777,N,(07) 5481 3700,,15 Rammutt Road,Chatsworth,4570,15 Rammutt Road,Chatsworth,,4570,North Coast,Wide Bay,Gympie,Gympie (R),Gympie Region,319031514,Inner Regional Australia,2022 February,269.00,,0.00,,66158665783,State,,152.615491,-26.142811
0677,Chelona State School,State School,Open,,,Prep Year,Year 6,Principal,02,16 June 2022,www.chelonass.eq.edu.au,(07) 4889 7222,N,(07) 48897200,,13 Chelona School Access Road,Chelona,4740,13 Chelona School Access Road,Mackay,,4740,Central Queensland,Capricornia,Mirani,Mackay (R),Walkerston - Eton,312021357,Outer Regional Australia,2022 February,122.00,,0.00,,86176596730,State,,149.145136,-21.260317
0989,Cherbourg State School,State School,Open,,,Early Childhood,Year 6,Principal,04,08 August 2022,www.cherbourgss.eq.edu.au,(07) 4169 9333,N,(07) 4169 9300,,Fisher Street,Cherbourg,4605,PO Box 158,Murgon,,4605,Darling Downs South West,Wide Bay,Nanango,Cherbourg (S),Kingaroy Region - North,319021506,Inner Regional Australia,2022 February,156.00,,23.00,,72736771780,State,,151.955152,-26.292991
1722,Chevallum State School,State School,Open,,,Prep Year,Year 6,Principal,05,10 June 2022,www.chevallumss.eq.edu.au,(07) 5453 2333,N,,,460 Chevallum Road,Chevallum,4555,460 Chevallum Road,Chevallum,,4555,North Coast,Fisher,Nicklin,Sunshine Coast (R),Palmwoods,316061444,Inner Regional Australia,2022 February,450.00,,0.00,,79897056237,State,,152.999357,-26.698439
0568,Childers State School,State School,Open,,,Early Childhood,Year 6,Principal,04,26 May 2022,www.childersss.eq.edu.au,(07) 4192 1333,N,(07) 4192 1300,,Mungomery Street,Childers,4660,Mungomery Street,Childers,,4660,North Coast,Hinkler,Burnett,Bundaberg (R),Bundaberg Region - South,319011499,Inner Regional Australia,2022 February,268.00,,0.00,,98244936737,State,,152.280341,-25.231175
0866,Chillagoe State School,State School,Open,,,Early Childhood,Year 6,Principal,01,15 July 2022,www.chillagoess.eq.edu.au,(07) 4094 7103,N,(07) 4094 7241,,Cathedral Street,Chillagoe,4871,PO Box 5,Chillagoe,,4871,Far North Queensland,Kennedy,Cook,Mareeba (S),Tablelands,315011400,Very Remote Australia,2022 February,19.00,,4.00,,54840426648,State,,144.521194,-17.155393
2087,Chinchilla State High School,State High School,Open,,,Year 7,Year 12,Principal,06,20 May 2022,www.chinchillashs.eq.edu.au,(07) 4672 9333,N,(07) 4672 9300,,7 Tara Road,Chinchilla,4413,PO Box 195,Chinchilla,,4413,Darling Downs South West,Maranoa,Callide,Western Downs (R),Chinchilla,307011172,Outer Regional Australia,2022 February,549.00,,0.00,,84163345849,State,,150.619992,-26.748744
0244,Chinchilla State School,State School,Open,,,Early Childhood,Year 6,Principal,05,20 May 2022,www.chinchilss.eq.edu.au,(07) 4672 9222,N,(07) 4672 9200,,34-40 Bell Street,Chinchilla,4413,PO Box 414,Chinchilla,,4413,Darling Downs South West,Maranoa,Callide,Western Downs (R),Chinchilla,307011172,Outer Regional Australia,2022 February,428.00,,2.00,,98314391316,State,,150.625972,-26.740350
1789,Churchill State School,State School,Open,,,Prep Year,Year 6,Principal,04,13 May 2022,www.churchillss.eq.edu.au,(07) 3810 4333,N,(07) 3810 4300,,Warwick Road,Churchill,4305,Warwick Road,Churchill,,4305,Metropolitan,Blair,Ipswich,Ipswich (C),Churchill - Yamanto,310031285,Major Cities of Australia,2022 February,325.00,,0.00,,47798770116,State,,152.750604,-27.642697
0171,Clare State School,State School,Open,,,Prep Year,Year 6,Principal,01,22 June 2022,www.claress.eq.edu.au,(07) 4782 7133,N,(07) 4782 7341,,Larkin Street,Clare,4807,c/- Post Office,Claredale,,4807,North Queensland,Dawson,Burdekin,Burdekin (S),Burdekin,318011461,Outer Regional Australia,2022 February,13.00,,0.00,,36616482250,State,,147.226883,-19.783298
3066,Claremont Special School,Special School,Open,,,Prep Year,Year 12,Principal,06,13 May 2022,www.claremontspecs.eq.edu.au,(07) 3813 5333,N,(07) 3813 5300,,138 Robertson Road,Silkstone,4304,PO Box 495,Booval,,4304,Metropolitan,Blair,Ipswich,Ipswich (C),Ipswich - East,310031287,Major Cities of Australia,2022 February,167.00,,0.00,,37865327376,State,,152.787678,-27.629534
